---
size: 1906
stops:
- StopUID: HSZ294384
  StopID: '294384'
  StopName:
    Zh_tw: 古奇峰
    En: Ku Chi Peak
  StopBoarding: 1
  StopSequence: 1
  StopPosition:
    PositionLat: 24.77984
    PositionLon: 120.97922
  RouteUID: HSZ0007
  SubRouteUID: HSZ000701
  Direction: 0
- StopUID: HSZ294385
  StopID: '294385'
  StopName:
    Zh_tw: 青峰路口
    En: Qing Feng Road Entrance
  StopBoarding: 0
  StopSequence: 2
  StopPosition:
    PositionLat: 24.77962
    PositionLon: 120.98144
  RouteUID: HSZ0007
  SubRouteUID: HSZ000701
  Direction: 0
- StopUID: HSZ294387
  StopID: '294387'
  StopName:
    Zh_tw: 土雞城
    En: Tu ji Cheng
  StopBoarding: 0
  StopSequence: 3
  StopPosition:
    PositionLat: 24.77914
    PositionLon: 120.98174
  RouteUID: HSZ0007
  SubRouteUID: HSZ000701
  Direction: 0
- StopUID: HSZ294388
  StopID: '294388'
  StopName:
    Zh_tw: 高峰
    En: Gao Feng
  StopBoarding: 0
  StopSequence: 4
  StopPosition:
    PositionLat: 24.77807
    PositionLon: 120.98257
  RouteUID: HSZ0007
  SubRouteUID: HSZ000701
  Direction: 0
- StopUID: HSZ294389
  StopID: '294389'
  StopName:
    Zh_tw: 竹泰社區
    En: Zhu Tai Community
  StopBoarding: 0
  StopSequence: 5
  StopPosition:
    PositionLat: 24.77878
    PositionLon: 120.98551
  RouteUID: HSZ0007
  SubRouteUID: HSZ000701
  Direction: 0
- StopUID: HSZ294390
  StopID: '294390'
  StopName:
    Zh_tw: 高翠
    En: Gao Cui
  StopBoarding: 0
  StopSequence: 6
  StopPosition:
    PositionLat: 24.78002
    PositionLon: 120.98696
  RouteUID: HSZ0007
  SubRouteUID: HSZ000701
  Direction: 0
- StopUID: HSZ294391
  StopID: '294391'
  StopName:
    Zh_tw: 下路北
    En: Xia Lu Bei
  StopBoarding: 0
  StopSequence: 7
  StopPosition:
    PositionLat: 24.78172
    PositionLon: 120.98806
  RouteUID: HSZ0007
  SubRouteUID: HSZ000701
  Direction: 0
- StopUID: HSZ294392
  StopID: '294392'
  StopName:
    Zh_tw: 仙宮里活動中心
    En: Xian Gong Village Activity Center
  StopBoarding: 0
  StopSequence: 8
  StopPosition:
    PositionLat: 24.78348
    PositionLon: 120.98964
  RouteUID: HSZ0007
  SubRouteUID: HSZ000701
  Direction: 0
- StopUID: HSZ294393
  StopID: '294393'
  StopName:
    Zh_tw: 仙宮里
    En: Xian Gong Village
  StopBoarding: 0
  StopSequence: 9
  StopPosition:
    PositionLat: 24.78462
    PositionLon: 120.99065
  RouteUID: HSZ0007
  SubRouteUID: HSZ000701
  Direction: 0
- StopUID: HSZ294394
  StopID: '294394'
  StopName:
    Zh_tw: 同步輻射中心
    En: National Synchrotron Radiation Research Center
  StopBoarding: 0
  StopSequence: 10
  StopPosition:
    PositionLat: 24.78347
    PositionLon: 120.99451
  RouteUID: HSZ0007
  SubRouteUID: HSZ000701
  Direction: 0
- StopUID: HSZ294395
  StopID: '294395'
  StopName:
    Zh_tw: 交大南大門
    En: NCTU South Gate
  StopBoarding: 0
  StopSequence: 11
  StopPosition:
    PositionLat: 24.78361
    PositionLon: 120.99603
  RouteUID: HSZ0007
  SubRouteUID: HSZ000701
  Direction: 0
- StopUID: HSZ294396
  StopID: '294396'
  StopName:
    Zh_tw: 漢威光電
    En: Hexawave Inc.
  StopBoarding: 0
  StopSequence: 12
  StopPosition:
    PositionLat: 24.78354
    PositionLon: 120.99984
  RouteUID: HSZ0007
  SubRouteUID: HSZ000701
  Direction: 0
- StopUID: HSZ294398
  StopID: '294398'
  StopName:
    Zh_tw: 同業公會
    En: Association of Industries in Science Parks
  StopBoarding: 0
  StopSequence: 13
  StopPosition:
    PositionLat: 24.78243
    PositionLon: 121.00195
  RouteUID: HSZ0007
  SubRouteUID: HSZ000701
  Direction: 0
- StopUID: HSZ294399
  StopID: '294399'
  StopName:
    Zh_tw: 新安站(科管局)
    En: Xin An Stop (Science Park Administration)
  StopBoarding: 0
  StopSequence: 14
  StopPosition:
    PositionLat: 24.7812
    PositionLon: 121.00449
  RouteUID: HSZ0007
  SubRouteUID: HSZ000701
  Direction: 0
- StopUID: HSZ294400
  StopID: '294400'
  StopName:
    Zh_tw: 和平
    En: He Ping
  StopBoarding: 0
  StopSequence: 15
  StopPosition:
    PositionLat: 24.78671
    PositionLon: 121.0106
  RouteUID: HSZ0007
  SubRouteUID: HSZ000701
  Direction: 0
- StopUID: HSZ294402
  StopID: '294402'
  StopName:
    Zh_tw: 光武國中
    En: Guang Wu Junior High School
  StopBoarding: 0
  StopSequence: 16
  StopPosition:
    PositionLat: 24.78557
    PositionLon: 121.01205
  RouteUID: HSZ0007
  SubRouteUID: HSZ000701
  Direction: 0
- StopUID: HSZ294403
  StopID: '294403'
  StopName:
    Zh_tw: 科學園區別墅
    En: Hsinchu Science Park Village
  StopBoarding: 0
  StopSequence: 17
  StopPosition:
    PositionLat: 24.78459
    PositionLon: 121.01414
  RouteUID: HSZ0007
  SubRouteUID: HSZ000701
  Direction: 0
- StopUID: HSZ294404
  StopID: '294404'
  StopName:
    Zh_tw: 日光燈
    En: Ri Guang Deng
  StopBoarding: 0
  StopSequence: 18
  StopPosition:
    PositionLat: 24.78388
    PositionLon: 121.01609
  RouteUID: HSZ0007
  SubRouteUID: HSZ000701
  Direction: 0
- StopUID: HSZ294405
  StopID: '294405'
  StopName:
    Zh_tw: 仙水
    En: Xian Shui
  StopBoarding: 0
  StopSequence: 19
  StopPosition:
    PositionLat: 24.78277
    PositionLon: 121.01865
  RouteUID: HSZ0007
  SubRouteUID: HSZ000701
  Direction: 0
- StopUID: HSZ294406
  StopID: '294406'
  StopName:
    Zh_tw: 世界高中
    En: World Senior High School
  StopBoarding: 0
  StopSequence: 20
  StopPosition:
    PositionLat: 24.78209
    PositionLon: 121.02023
  RouteUID: HSZ0007
  SubRouteUID: HSZ000701
  Direction: 0
- StopUID: HSZ294407
  StopID: '294407'
  StopName:
    Zh_tw: 關東國小
    En: Guan Dong Primary School
  StopBoarding: 0
  StopSequence: 21
  StopPosition:
    PositionLat: 24.78414
    PositionLon: 121.02232
  RouteUID: HSZ0007
  SubRouteUID: HSZ000701
  Direction: 0
- StopUID: HSZ294408
  StopID: '294408'
  StopName:
    Zh_tw: 新莊車站
    En: Xinzhuang Station
  StopBoarding: 0
  StopSequence: 22
  StopPosition:
    PositionLat: 24.78793
    PositionLon: 121.02059
  RouteUID: HSZ0007
  SubRouteUID: HSZ000701
  Direction: 0
- StopUID: HSZ292084
  StopID: '292084'
  StopName:
    Zh_tw: 關埔公園
    En: ''
  StopBoarding: 0
  StopSequence: 23
  StopPosition:
    PositionLat: 24.79123
    PositionLon: 121.01794
  RouteUID: HSZ0007
  SubRouteUID: HSZ000701
  Direction: 0
- StopUID: HSZ295220
  StopID: '295220'
  StopName:
    Zh_tw: 慈濟路口
    En: Ci Ji Road Entrance
  StopBoarding: 0
  StopSequence: 24
  StopPosition:
    PositionLat: 24.79351
    PositionLon: 121.01483
  RouteUID: HSZ0007
  SubRouteUID: HSZ000701
  Direction: 0
- StopUID: HSZ295221
  StopID: '295221'
  StopName:
    Zh_tw: 好市多
    En: Costco
  StopBoarding: 0
  StopSequence: 25
  StopPosition:
    PositionLat: 24.79416
    PositionLon: 121.01272
  RouteUID: HSZ0007
  SubRouteUID: HSZ000701
  Direction: 0
- StopUID: HSZ295222
  StopID: '295222'
  StopName:
    Zh_tw: 埔頂莊
    En: Pu Ding Zhuang
  StopBoarding: 0
  StopSequence: 26
  StopPosition:
    PositionLat: 24.79467
    PositionLon: 121.00891
  RouteUID: HSZ0007
  SubRouteUID: HSZ000701
  Direction: 0
- StopUID: HSZ295223
  StopID: '295223'
  StopName:
    Zh_tw: 金城華夏
    En: Hua Xia Jin Cheng
  StopBoarding: 0
  StopSequence: 27
  StopPosition:
    PositionLat: 24.79488
    PositionLon: 121.00391
  RouteUID: HSZ0007
  SubRouteUID: HSZ000701
  Direction: 0
- StopUID: HSZ295224
  StopID: '295224'
  StopName:
    Zh_tw: 建功公園
    En: Jian Gong Park
  StopBoarding: 0
  StopSequence: 28
  StopPosition:
    PositionLat: 24.79415
    PositionLon: 121.00263
  RouteUID: HSZ0007
  SubRouteUID: HSZ000701
  Direction: 0
- StopUID: HSZ295225
  StopID: '295225'
  StopName:
    Zh_tw: 建功高中
    En: Chien-Kung Senior High School
  StopBoarding: 0
  StopSequence: 29
  StopPosition:
    PositionLat: 24.79636
    PositionLon: 121.00213
  RouteUID: HSZ0007
  SubRouteUID: HSZ000701
  Direction: 0
- StopUID: HSZ295226
  StopID: '295226'
  StopName:
    Zh_tw: 文教新村(建功)
    En: Wen Jiao Xin Village(Jiangong)
  StopBoarding: 0
  StopSequence: 30
  StopPosition:
    PositionLat: 24.79665
    PositionLon: 120.99911
  RouteUID: HSZ0007
  SubRouteUID: HSZ000701
  Direction: 0
- StopUID: HSZ295227
  StopID: '295227'
  StopName:
    Zh_tw: 金城新村口
    En: Jin Cheng Xin Village Entrance
  StopBoarding: 0
  StopSequence: 31
  StopPosition:
    PositionLat: 24.79373
    PositionLon: 121.0006
  RouteUID: HSZ0007
  SubRouteUID: HSZ000701
  Direction: 0
- StopUID: HSZ295228
  StopID: '295228'
  StopName:
    Zh_tw: 過溝
    En: Guo Gou
  StopBoarding: 0
  StopSequence: 32
  StopPosition:
    PositionLat: 24.79196
    PositionLon: 121.00309
  RouteUID: HSZ0007
  SubRouteUID: HSZ000701
  Direction: 0
- StopUID: HSZ295230
  StopID: '295230'
  StopName:
    Zh_tw: 科學園區
    En: Hsinchu Science Park
  StopBoarding: 0
  StopSequence: 33
  StopPosition:
    PositionLat: 24.78846
    PositionLon: 121.00822
  RouteUID: HSZ0007
  SubRouteUID: HSZ000701
  Direction: 0
- StopUID: HSZ294414
  StopID: '294414'
  StopName:
    Zh_tw: 新安站(科管局)
    En: Xin An Stop (Science Park Administration)
  StopBoarding: 0
  StopSequence: 34
  StopPosition:
    PositionLat: 24.78102
    PositionLon: 121.00592
  RouteUID: HSZ0007
  SubRouteUID: HSZ000701
  Direction: 0
- StopUID: HSZ294415
  StopID: '294415'
  StopName:
    Zh_tw: 同業公會
    En: Association of Industries in Science Parks
  StopBoarding: 0
  StopSequence: 35
  StopPosition:
    PositionLat: 24.78243
    PositionLon: 121.00195
  RouteUID: HSZ0007
  SubRouteUID: HSZ000701
  Direction: 0
- StopUID: HSZ294416
  StopID: '294416'
  StopName:
    Zh_tw: 漢威光電
    En: Hexawave Inc.
  StopBoarding: 0
  StopSequence: 36
  StopPosition:
    PositionLat: 24.78342
    PositionLon: 120.99911
  RouteUID: HSZ0007
  SubRouteUID: HSZ000701
  Direction: 0
- StopUID: HSZ294417
  StopID: '294417'
  StopName:
    Zh_tw: 交大南大門
    En: NCTU South Gate
  StopBoarding: 0
  StopSequence: 37
  StopPosition:
    PositionLat: 24.78349
    PositionLon: 120.99638
  RouteUID: HSZ0007
  SubRouteUID: HSZ000701
  Direction: 0
- StopUID: HSZ294418
  StopID: '294418'
  StopName:
    Zh_tw: 同步輻射中心
    En: National Synchrotron Radiation Research Center
  StopBoarding: 0
  StopSequence: 38
  StopPosition:
    PositionLat: 24.78376
    PositionLon: 120.99445
  RouteUID: HSZ0007
  SubRouteUID: HSZ000701
  Direction: 0
- StopUID: HSZ294419
  StopID: '294419'
  StopName:
    Zh_tw: 仙宮里
    En: Xian Gong Village
  StopBoarding: 0
  StopSequence: 39
  StopPosition:
    PositionLat: 24.78462
    PositionLon: 120.99065
  RouteUID: HSZ0007
  SubRouteUID: HSZ000701
  Direction: 0
- StopUID: HSZ294420
  StopID: '294420'
  StopName:
    Zh_tw: 仙宮里活動中心
    En: Xian Gong Village Activity Center
  StopBoarding: 0
  StopSequence: 40
  StopPosition:
    PositionLat: 24.78348
    PositionLon: 120.98964
  RouteUID: HSZ0007
  SubRouteUID: HSZ000701
  Direction: 0
- StopUID: HSZ294421
  StopID: '294421'
  StopName:
    Zh_tw: 下路北
    En: Xia Lu Bei
  StopBoarding: 0
  StopSequence: 41
  StopPosition:
    PositionLat: 24.78172
    PositionLon: 120.98806
  RouteUID: HSZ0007
  SubRouteUID: HSZ000701
  Direction: 0
- StopUID: HSZ294422
  StopID: '294422'
  StopName:
    Zh_tw: 高翠
    En: Gao Cui
  StopBoarding: 0
  StopSequence: 42
  StopPosition:
    PositionLat: 24.78002
    PositionLon: 120.98696
  RouteUID: HSZ0007
  SubRouteUID: HSZ000701
  Direction: 0
- StopUID: HSZ294423
  StopID: '294423'
  StopName:
    Zh_tw: 竹泰社區
    En: Zhu Tai Community
  StopBoarding: 0
  StopSequence: 43
  StopPosition:
    PositionLat: 24.77878
    PositionLon: 120.98551
  RouteUID: HSZ0007
  SubRouteUID: HSZ000701
  Direction: 0
- StopUID: HSZ294424
  StopID: '294424'
  StopName:
    Zh_tw: 高峰
    En: Gao Feng
  StopBoarding: 0
  StopSequence: 44
  StopPosition:
    PositionLat: 24.77764
    PositionLon: 120.98293
  RouteUID: HSZ0007
  SubRouteUID: HSZ000701
  Direction: 0
- StopUID: HSZ294425
  StopID: '294425'
  StopName:
    Zh_tw: 土雞城
    En: Tu ji Cheng
  StopBoarding: 0
  StopSequence: 45
  StopPosition:
    PositionLat: 24.77882
    PositionLon: 120.98205
  RouteUID: HSZ0007
  SubRouteUID: HSZ000701
  Direction: 0
- StopUID: HSZ294426
  StopID: '294426'
  StopName:
    Zh_tw: 青峰路口
    En: Qing Feng Road Entrance
  StopBoarding: 0
  StopSequence: 46
  StopPosition:
    PositionLat: 24.77978
    PositionLon: 120.98135
  RouteUID: HSZ0007
  SubRouteUID: HSZ000701
  Direction: 0
- StopUID: HSZ294427
  StopID: '294427'
  StopName:
    Zh_tw: 古奇峰
    En: Ku Chi Peak
  StopBoarding: -1
  StopSequence: 47
  StopPosition:
    PositionLat: 24.77912
    PositionLon: 120.97966
  RouteUID: HSZ0007
  SubRouteUID: HSZ000701
  Direction: 0
- StopUID: HSZ294384
  StopID: '294384'
  StopName:
    Zh_tw: 古奇峰
    En: Ku Chi Peak
  StopBoarding: 1
  StopSequence: 1
  StopPosition:
    PositionLat: 24.77984
    PositionLon: 120.97922
  RouteUID: HSZ0007
  SubRouteUID: HSZ0007A1
  Direction: 0
- StopUID: HSZ294385
  StopID: '294385'
  StopName:
    Zh_tw: 青峰路口
    En: Qing Feng Road Entrance
  StopBoarding: 0
  StopSequence: 2
  StopPosition:
    PositionLat: 24.77962
    PositionLon: 120.98144
  RouteUID: HSZ0007
  SubRouteUID: HSZ0007A1
  Direction: 0
- StopUID: HSZ294387
  StopID: '294387'
  StopName:
    Zh_tw: 土雞城
    En: Tu ji Cheng
  StopBoarding: 0
  StopSequence: 3
  StopPosition:
    PositionLat: 24.77914
    PositionLon: 120.98174
  RouteUID: HSZ0007
  SubRouteUID: HSZ0007A1
  Direction: 0
- StopUID: HSZ294388
  StopID: '294388'
  StopName:
    Zh_tw: 高峰
    En: Gao Feng
  StopBoarding: 0
  StopSequence: 4
  StopPosition:
    PositionLat: 24.77807
    PositionLon: 120.98257
  RouteUID: HSZ0007
  SubRouteUID: HSZ0007A1
  Direction: 0
- StopUID: HSZ294389
  StopID: '294389'
  StopName:
    Zh_tw: 竹泰社區
    En: Zhu Tai Community
  StopBoarding: 0
  StopSequence: 5
  StopPosition:
    PositionLat: 24.77878
    PositionLon: 120.98551
  RouteUID: HSZ0007
  SubRouteUID: HSZ0007A1
  Direction: 0
- StopUID: HSZ294390
  StopID: '294390'
  StopName:
    Zh_tw: 高翠
    En: Gao Cui
  StopBoarding: 0
  StopSequence: 6
  StopPosition:
    PositionLat: 24.78002
    PositionLon: 120.98696
  RouteUID: HSZ0007
  SubRouteUID: HSZ0007A1
  Direction: 0
- StopUID: HSZ294391
  StopID: '294391'
  StopName:
    Zh_tw: 下路北
    En: Xia Lu Bei
  StopBoarding: 0
  StopSequence: 7
  StopPosition:
    PositionLat: 24.78172
    PositionLon: 120.98806
  RouteUID: HSZ0007
  SubRouteUID: HSZ0007A1
  Direction: 0
- StopUID: HSZ294392
  StopID: '294392'
  StopName:
    Zh_tw: 仙宮里活動中心
    En: Xian Gong Village Activity Center
  StopBoarding: 0
  StopSequence: 8
  StopPosition:
    PositionLat: 24.78348
    PositionLon: 120.98964
  RouteUID: HSZ0007
  SubRouteUID: HSZ0007A1
  Direction: 0
- StopUID: HSZ294393
  StopID: '294393'
  StopName:
    Zh_tw: 仙宮里
    En: Xian Gong Village
  StopBoarding: 0
  StopSequence: 9
  StopPosition:
    PositionLat: 24.78462
    PositionLon: 120.99065
  RouteUID: HSZ0007
  SubRouteUID: HSZ0007A1
  Direction: 0
- StopUID: HSZ294394
  StopID: '294394'
  StopName:
    Zh_tw: 同步輻射中心
    En: National Synchrotron Radiation Research Center
  StopBoarding: 0
  StopSequence: 10
  StopPosition:
    PositionLat: 24.78347
    PositionLon: 120.99451
  RouteUID: HSZ0007
  SubRouteUID: HSZ0007A1
  Direction: 0
- StopUID: HSZ294395
  StopID: '294395'
  StopName:
    Zh_tw: 交大南大門
    En: NCTU South Gate
  StopBoarding: 0
  StopSequence: 11
  StopPosition:
    PositionLat: 24.78361
    PositionLon: 120.99603
  RouteUID: HSZ0007
  SubRouteUID: HSZ0007A1
  Direction: 0
- StopUID: HSZ294396
  StopID: '294396'
  StopName:
    Zh_tw: 漢威光電
    En: Hexawave Inc.
  StopBoarding: 0
  StopSequence: 12
  StopPosition:
    PositionLat: 24.78354
    PositionLon: 120.99984
  RouteUID: HSZ0007
  SubRouteUID: HSZ0007A1
  Direction: 0
- StopUID: HSZ294398
  StopID: '294398'
  StopName:
    Zh_tw: 同業公會
    En: Association of Industries in Science Parks
  StopBoarding: 0
  StopSequence: 13
  StopPosition:
    PositionLat: 24.78243
    PositionLon: 121.00195
  RouteUID: HSZ0007
  SubRouteUID: HSZ0007A1
  Direction: 0
- StopUID: HSZ294399
  StopID: '294399'
  StopName:
    Zh_tw: 新安站(科管局)
    En: Xin An Stop (Science Park Administration)
  StopBoarding: 0
  StopSequence: 14
  StopPosition:
    PositionLat: 24.7812
    PositionLon: 121.00449
  RouteUID: HSZ0007
  SubRouteUID: HSZ0007A1
  Direction: 0
- StopUID: HSZ295230
  StopID: '295230'
  StopName:
    Zh_tw: 科學園區
    En: Hsinchu Science Park
  StopBoarding: 0
  StopSequence: 15
  StopPosition:
    PositionLat: 24.78846
    PositionLon: 121.00822
  RouteUID: HSZ0007
  SubRouteUID: HSZ0007A1
  Direction: 0
- StopUID: HSZ295228
  StopID: '295228'
  StopName:
    Zh_tw: 過溝
    En: Guo Gou
  StopBoarding: 0
  StopSequence: 16
  StopPosition:
    PositionLat: 24.79196
    PositionLon: 121.00309
  RouteUID: HSZ0007
  SubRouteUID: HSZ0007A1
  Direction: 0
- StopUID: HSZ295227
  StopID: '295227'
  StopName:
    Zh_tw: 金城新村口
    En: Jin Cheng Xin Village Entrance
  StopBoarding: 0
  StopSequence: 17
  StopPosition:
    PositionLat: 24.79373
    PositionLon: 121.0006
  RouteUID: HSZ0007
  SubRouteUID: HSZ0007A1
  Direction: 0
- StopUID: HSZ295232
  StopID: '295232'
  StopName:
    Zh_tw: 文教新村(光復)
    En: Wen Jiao Xin Village(Gangfu)
  StopBoarding: 0
  StopSequence: 18
  StopPosition:
    PositionLat: 24.79531
    PositionLon: 120.99876
  RouteUID: HSZ0007
  SubRouteUID: HSZ0007A1
  Direction: 0
- StopUID: HSZ295226
  StopID: '295226'
  StopName:
    Zh_tw: 文教新村(建功)
    En: Wen Jiao Xin Village(Jiangong)
  StopBoarding: 0
  StopSequence: 19
  StopPosition:
    PositionLat: 24.79665
    PositionLon: 120.99911
  RouteUID: HSZ0007
  SubRouteUID: HSZ0007A1
  Direction: 0
- StopUID: HSZ295225
  StopID: '295225'
  StopName:
    Zh_tw: 建功高中
    En: Chien-Kung Senior High School
  StopBoarding: 0
  StopSequence: 20
  StopPosition:
    PositionLat: 24.79636
    PositionLon: 121.00213
  RouteUID: HSZ0007
  SubRouteUID: HSZ0007A1
  Direction: 0
- StopUID: HSZ295224
  StopID: '295224'
  StopName:
    Zh_tw: 建功公園
    En: Jian Gong Park
  StopBoarding: 0
  StopSequence: 21
  StopPosition:
    PositionLat: 24.79415
    PositionLon: 121.00263
  RouteUID: HSZ0007
  SubRouteUID: HSZ0007A1
  Direction: 0
- StopUID: HSZ295223
  StopID: '295223'
  StopName:
    Zh_tw: 金城華夏
    En: Hua Xia Jin Cheng
  StopBoarding: 0
  StopSequence: 22
  StopPosition:
    PositionLat: 24.79488
    PositionLon: 121.00391
  RouteUID: HSZ0007
  SubRouteUID: HSZ0007A1
  Direction: 0
- StopUID: HSZ295222
  StopID: '295222'
  StopName:
    Zh_tw: 埔頂莊
    En: Pu Ding Zhuang
  StopBoarding: 0
  StopSequence: 23
  StopPosition:
    PositionLat: 24.79467
    PositionLon: 121.00891
  RouteUID: HSZ0007
  SubRouteUID: HSZ0007A1
  Direction: 0
- StopUID: HSZ295221
  StopID: '295221'
  StopName:
    Zh_tw: 好市多
    En: Costco
  StopBoarding: 0
  StopSequence: 24
  StopPosition:
    PositionLat: 24.79416
    PositionLon: 121.01272
  RouteUID: HSZ0007
  SubRouteUID: HSZ0007A1
  Direction: 0
- StopUID: HSZ295220
  StopID: '295220'
  StopName:
    Zh_tw: 慈濟路口
    En: Ci Ji Road Entrance
  StopBoarding: 0
  StopSequence: 25
  StopPosition:
    PositionLat: 24.79351
    PositionLon: 121.01483
  RouteUID: HSZ0007
  SubRouteUID: HSZ0007A1
  Direction: 0
- StopUID: HSZ295233
  StopID: '295233'
  StopName:
    Zh_tw: 關埔公園
    En: Guan Pu Park
  StopBoarding: 0
  StopSequence: 26
  StopPosition:
    PositionLat: 24.79126
    PositionLon: 121.01785
  RouteUID: HSZ0007
  SubRouteUID: HSZ0007A1
  Direction: 0
- StopUID: HSZ294408
  StopID: '294408'
  StopName:
    Zh_tw: 新莊車站
    En: Xinzhuang Station
  StopBoarding: 0
  StopSequence: 27
  StopPosition:
    PositionLat: 24.78793
    PositionLon: 121.02059
  RouteUID: HSZ0007
  SubRouteUID: HSZ0007A1
  Direction: 0
- StopUID: HSZ294407
  StopID: '294407'
  StopName:
    Zh_tw: 關東國小
    En: Guan Dong Primary School
  StopBoarding: 0
  StopSequence: 28
  StopPosition:
    PositionLat: 24.78414
    PositionLon: 121.02232
  RouteUID: HSZ0007
  SubRouteUID: HSZ0007A1
  Direction: 0
- StopUID: HSZ294406
  StopID: '294406'
  StopName:
    Zh_tw: 世界高中
    En: World Senior High School
  StopBoarding: 0
  StopSequence: 29
  StopPosition:
    PositionLat: 24.78209
    PositionLon: 121.02023
  RouteUID: HSZ0007
  SubRouteUID: HSZ0007A1
  Direction: 0
- StopUID: HSZ294405
  StopID: '294405'
  StopName:
    Zh_tw: 仙水
    En: Xian Shui
  StopBoarding: 0
  StopSequence: 30
  StopPosition:
    PositionLat: 24.78277
    PositionLon: 121.01865
  RouteUID: HSZ0007
  SubRouteUID: HSZ0007A1
  Direction: 0
- StopUID: HSZ294410
  StopID: '294410'
  StopName:
    Zh_tw: 日光燈
    En: Ri Guang Deng
  StopBoarding: 0
  StopSequence: 31
  StopPosition:
    PositionLat: 24.78416
    PositionLon: 121.01554
  RouteUID: HSZ0007
  SubRouteUID: HSZ0007A1
  Direction: 0
- StopUID: HSZ294411
  StopID: '294411'
  StopName:
    Zh_tw: 科學園區別墅
    En: Hsinchu Science Park Village
  StopBoarding: 0
  StopSequence: 32
  StopPosition:
    PositionLat: 24.78482
    PositionLon: 121.01375
  RouteUID: HSZ0007
  SubRouteUID: HSZ0007A1
  Direction: 0
- StopUID: HSZ294412
  StopID: '294412'
  StopName:
    Zh_tw: 光武國中
    En: Guang Wu Junior High School
  StopBoarding: 0
  StopSequence: 33
  StopPosition:
    PositionLat: 24.78579
    PositionLon: 121.0119
  RouteUID: HSZ0007
  SubRouteUID: HSZ0007A1
  Direction: 0
- StopUID: HSZ294413
  StopID: '294413'
  StopName:
    Zh_tw: 和平
    En: He Ping
  StopBoarding: 0
  StopSequence: 34
  StopPosition:
    PositionLat: 24.78671
    PositionLon: 121.0106
  RouteUID: HSZ0007
  SubRouteUID: HSZ0007A1
  Direction: 0
- StopUID: HSZ294414
  StopID: '294414'
  StopName:
    Zh_tw: 新安站(科管局)
    En: Xin An Stop (Science Park Administration)
  StopBoarding: 0
  StopSequence: 35
  StopPosition:
    PositionLat: 24.78102
    PositionLon: 121.00592
  RouteUID: HSZ0007
  SubRouteUID: HSZ0007A1
  Direction: 0
- StopUID: HSZ294415
  StopID: '294415'
  StopName:
    Zh_tw: 同業公會
    En: Association of Industries in Science Parks
  StopBoarding: 0
  StopSequence: 36
  StopPosition:
    PositionLat: 24.78243
    PositionLon: 121.00195
  RouteUID: HSZ0007
  SubRouteUID: HSZ0007A1
  Direction: 0
- StopUID: HSZ294416
  StopID: '294416'
  StopName:
    Zh_tw: 漢威光電
    En: Hexawave Inc.
  StopBoarding: 0
  StopSequence: 37
  StopPosition:
    PositionLat: 24.78342
    PositionLon: 120.99911
  RouteUID: HSZ0007
  SubRouteUID: HSZ0007A1
  Direction: 0
- StopUID: HSZ294417
  StopID: '294417'
  StopName:
    Zh_tw: 交大南大門
    En: NCTU South Gate
  StopBoarding: 0
  StopSequence: 38
  StopPosition:
    PositionLat: 24.78349
    PositionLon: 120.99638
  RouteUID: HSZ0007
  SubRouteUID: HSZ0007A1
  Direction: 0
- StopUID: HSZ294418
  StopID: '294418'
  StopName:
    Zh_tw: 同步輻射中心
    En: National Synchrotron Radiation Research Center
  StopBoarding: 0
  StopSequence: 39
  StopPosition:
    PositionLat: 24.78376
    PositionLon: 120.99445
  RouteUID: HSZ0007
  SubRouteUID: HSZ0007A1
  Direction: 0
- StopUID: HSZ294419
  StopID: '294419'
  StopName:
    Zh_tw: 仙宮里
    En: Xian Gong Village
  StopBoarding: 0
  StopSequence: 40
  StopPosition:
    PositionLat: 24.78462
    PositionLon: 120.99065
  RouteUID: HSZ0007
  SubRouteUID: HSZ0007A1
  Direction: 0
- StopUID: HSZ294420
  StopID: '294420'
  StopName:
    Zh_tw: 仙宮里活動中心
    En: Xian Gong Village Activity Center
  StopBoarding: 0
  StopSequence: 41
  StopPosition:
    PositionLat: 24.78348
    PositionLon: 120.98964
  RouteUID: HSZ0007
  SubRouteUID: HSZ0007A1
  Direction: 0
- StopUID: HSZ294421
  StopID: '294421'
  StopName:
    Zh_tw: 下路北
    En: Xia Lu Bei
  StopBoarding: 0
  StopSequence: 42
  StopPosition:
    PositionLat: 24.78172
    PositionLon: 120.98806
  RouteUID: HSZ0007
  SubRouteUID: HSZ0007A1
  Direction: 0
- StopUID: HSZ294422
  StopID: '294422'
  StopName:
    Zh_tw: 高翠
    En: Gao Cui
  StopBoarding: 0
  StopSequence: 43
  StopPosition:
    PositionLat: 24.78002
    PositionLon: 120.98696
  RouteUID: HSZ0007
  SubRouteUID: HSZ0007A1
  Direction: 0
- StopUID: HSZ294423
  StopID: '294423'
  StopName:
    Zh_tw: 竹泰社區
    En: Zhu Tai Community
  StopBoarding: 0
  StopSequence: 44
  StopPosition:
    PositionLat: 24.77878
    PositionLon: 120.98551
  RouteUID: HSZ0007
  SubRouteUID: HSZ0007A1
  Direction: 0
- StopUID: HSZ294424
  StopID: '294424'
  StopName:
    Zh_tw: 高峰
    En: Gao Feng
  StopBoarding: 0
  StopSequence: 45
  StopPosition:
    PositionLat: 24.77764
    PositionLon: 120.98293
  RouteUID: HSZ0007
  SubRouteUID: HSZ0007A1
  Direction: 0
- StopUID: HSZ294425
  StopID: '294425'
  StopName:
    Zh_tw: 土雞城
    En: Tu ji Cheng
  StopBoarding: 0
  StopSequence: 46
  StopPosition:
    PositionLat: 24.77882
    PositionLon: 120.98205
  RouteUID: HSZ0007
  SubRouteUID: HSZ0007A1
  Direction: 0
- StopUID: HSZ294426
  StopID: '294426'
  StopName:
    Zh_tw: 青峰路口
    En: Qing Feng Road Entrance
  StopBoarding: 0
  StopSequence: 47
  StopPosition:
    PositionLat: 24.77978
    PositionLon: 120.98135
  RouteUID: HSZ0007
  SubRouteUID: HSZ0007A1
  Direction: 0
- StopUID: HSZ294427
  StopID: '294427'
  StopName:
    Zh_tw: 古奇峰
    En: Ku Chi Peak
  StopBoarding: -1
  StopSequence: 48
  StopPosition:
    PositionLat: 24.77912
    PositionLon: 120.97966
  RouteUID: HSZ0007
  SubRouteUID: HSZ0007A1
  Direction: 0
- StopUID: HSZ291762
  StopID: '291762'
  StopName:
    Zh_tw: 火車站
    En: Train Station
  StopBoarding: 1
  StopSequence: 1
  StopPosition:
    PositionLat: 24.803407
    PositionLon: 120.971855
  RouteUID: HSZ0010
  SubRouteUID: HSZ001001
  Direction: 0
- StopUID: HSZ291742
  StopID: '291742'
  StopName:
    Zh_tw: 東門市場
    En: Dong Men Market
  StopBoarding: 0
  StopSequence: 2
  StopPosition:
    PositionLat: 24.805256
    PositionLon: 120.969606
  RouteUID: HSZ0010
  SubRouteUID: HSZ001001
  Direction: 0
- StopUID: HSZ291763
  StopID: '291763'
  StopName:
    Zh_tw: 親仁里
    En: Qin Ren Village
  StopBoarding: 0
  StopSequence: 3
  StopPosition:
    PositionLat: 24.807501
    PositionLon: 120.971544
  RouteUID: HSZ0010
  SubRouteUID: HSZ001001
  Direction: 0
- StopUID: HSZ291236
  StopID: '291236'
  StopName:
    Zh_tw: 東門國小
    En: Tung Men Primary School
  StopBoarding: 0
  StopSequence: 4
  StopPosition:
    PositionLat: 24.80624
    PositionLon: 120.97335
  RouteUID: HSZ0010
  SubRouteUID: HSZ001001
  Direction: 0
- StopUID: HSZ291223
  StopID: '291223'
  StopName:
    Zh_tw: 公園
    En: Park
  StopBoarding: 0
  StopSequence: 5
  StopPosition:
    PositionLat: 24.80104
    PositionLon: 120.97654
  RouteUID: HSZ0010
  SubRouteUID: HSZ001001
  Direction: 0
- StopUID: HSZ291247
  StopID: '291247'
  StopName:
    Zh_tw: 學園商場
    En: Xue Yuan Market
  StopBoarding: 0
  StopSequence: 6
  StopPosition:
    PositionLat: 24.79862
    PositionLon: 120.97773
  RouteUID: HSZ0010
  SubRouteUID: HSZ001001
  Direction: 0
- StopUID: HSZ291234
  StopID: '291234'
  StopName:
    Zh_tw: 東山文教院
    En: Dong Shan Wen Jiao Yuan
  StopBoarding: 0
  StopSequence: 7
  StopPosition:
    PositionLat: 24.79747
    PositionLon: 120.97886
  RouteUID: HSZ0010
  SubRouteUID: HSZ001001
  Direction: 0
- StopUID: HSZ291243
  StopID: '291243'
  StopName:
    Zh_tw: 新竹高中
    En: National Hsinchu Senior High School
  StopBoarding: 0
  StopSequence: 8
  StopPosition:
    PositionLat: 24.79565
    PositionLon: 120.98113
  RouteUID: HSZ0010
  SubRouteUID: HSZ001001
  Direction: 0
- StopUID: HSZ291764
  StopID: '291764'
  StopName:
    Zh_tw: 新竹高商
    En: National Hsinchu Commercial & Vocational High School
  StopBoarding: 0
  StopSequence: 9
  StopPosition:
    PositionLat: 24.7969160741498
    PositionLon: 120.984554807185
  RouteUID: HSZ0010
  SubRouteUID: HSZ001001
  Direction: 0
- StopUID: HSZ291225
  StopID: '291225'
  StopName:
    Zh_tw: 水源地
    En: Shui Yuan Di
  StopBoarding: 0
  StopSequence: 10
  StopPosition:
    PositionLat: 24.79779
    PositionLon: 120.98582
  RouteUID: HSZ0010
  SubRouteUID: HSZ001001
  Direction: 0
- StopUID: HSZ291246
  StopID: '291246'
  StopName:
    Zh_tw: 學府路口
    En: Xue Fu Road Entrance
  StopBoarding: 0
  StopSequence: 11
  StopPosition:
    PositionLat: 24.80048
    PositionLon: 120.98692
  RouteUID: HSZ0010
  SubRouteUID: HSZ001001
  Direction: 0
- StopUID: HSZ291222
  StopID: '291222'
  StopName:
    Zh_tw: 工研院光復院區
    En: ITRI Kuang fu Compound
  StopBoarding: 0
  StopSequence: 12
  StopPosition:
    PositionLat: 24.80046
    PositionLon: 120.98891
  RouteUID: HSZ0010
  SubRouteUID: HSZ001001
  Direction: 0
- StopUID: HSZ291241
  StopID: '291241'
  StopName:
    Zh_tw: 馬偕醫院
    En: Mackay Memorial Hospital, HsinChu
  StopBoarding: 0
  StopSequence: 13
  StopPosition:
    PositionLat: 24.79999
    PositionLon: 120.99036
  RouteUID: HSZ0010
  SubRouteUID: HSZ001001
  Direction: 0
- StopUID: HSZ291240
  StopID: '291240'
  StopName:
    Zh_tw: 海軍新村
    En: Hai Jun Xin Village
  StopBoarding: 0
  StopSequence: 14
  StopPosition:
    PositionLat: 24.79931
    PositionLon: 120.99223
  RouteUID: HSZ0010
  SubRouteUID: HSZ001001
  Direction: 0
- StopUID: HSZ291230
  StopID: '291230'
  StopName:
    Zh_tw: 光復中學
    En: Kuang-Fu Senior High School
  StopBoarding: 0
  StopSequence: 15
  StopPosition:
    PositionLat: 24.79824
    PositionLon: 120.99456
  RouteUID: HSZ0010
  SubRouteUID: HSZ001001
  Direction: 0
- StopUID: HSZ291242
  StopID: '291242'
  StopName:
    Zh_tw: 清大
    En: National Tsing Hua University
  StopBoarding: 0
  StopSequence: 16
  StopPosition:
    PositionLat: 24.79631
    PositionLon: 120.99745
  RouteUID: HSZ0010
  SubRouteUID: HSZ001001
  Direction: 0
- StopUID: HSZ291237
  StopID: '291237'
  StopName:
    Zh_tw: 金城新村口
    En: Jin Cheng Xin Village Kou
  StopBoarding: 0
  StopSequence: 17
  StopPosition:
    PositionLat: 24.79378
    PositionLon: 121.00052
  RouteUID: HSZ0010
  SubRouteUID: HSZ001001
  Direction: 0
- StopUID: HSZ293681
  StopID: '293681'
  StopName:
    Zh_tw: 過溝
    En: Guo Gou
  StopBoarding: 0
  StopSequence: 18
  StopPosition:
    PositionLat: 24.79177
    PositionLon: 121.00323
  RouteUID: HSZ0010
  SubRouteUID: HSZ001001
  Direction: 0
- StopUID: HSZ291238
  StopID: '291238'
  StopName:
    Zh_tw: 科學園區
    En: Hsinchu Science Park
  StopBoarding: 0
  StopSequence: 19
  StopPosition:
    PositionLat: 24.78824
    PositionLon: 121.00835
  RouteUID: HSZ0010
  SubRouteUID: HSZ001001
  Direction: 0
- StopUID: HSZ291233
  StopID: '291233'
  StopName:
    Zh_tw: 和平
    En: He Ping
  StopBoarding: 0
  StopSequence: 20
  StopPosition:
    PositionLat: 24.78683
    PositionLon: 121.01076
  RouteUID: HSZ0010
  SubRouteUID: HSZ001001
  Direction: 0
- StopUID: HSZ291229
  StopID: '291229'
  StopName:
    Zh_tw: 光武國中
    En: Guang Wu Junior High School
  StopBoarding: 0
  StopSequence: 21
  StopPosition:
    PositionLat: 24.78555
    PositionLon: 121.01205
  RouteUID: HSZ0010
  SubRouteUID: HSZ001001
  Direction: 0
- StopUID: HSZ291239
  StopID: '291239'
  StopName:
    Zh_tw: 科學園區別墅
    En: Hsinchu Science Park Villa
  StopBoarding: 0
  StopSequence: 22
  StopPosition:
    PositionLat: 24.78458
    PositionLon: 121.01426
  RouteUID: HSZ0010
  SubRouteUID: HSZ001001
  Direction: 0
- StopUID: HSZ291224
  StopID: '291224'
  StopName:
    Zh_tw: 日光燈
    En: Ri Guang Deng
  StopBoarding: 0
  StopSequence: 23
  StopPosition:
    PositionLat: 24.7841
    PositionLon: 121.01612
  RouteUID: HSZ0010
  SubRouteUID: HSZ001001
  Direction: 0
- StopUID: HSZ291228
  StopID: '291228'
  StopName:
    Zh_tw: 仙水
    En: Xian Shui
  StopBoarding: 0
  StopSequence: 24
  StopPosition:
    PositionLat: 24.78297
    PositionLon: 121.01859
  RouteUID: HSZ0010
  SubRouteUID: HSZ001001
  Direction: 0
- StopUID: HSZ291227
  StopID: '291227'
  StopName:
    Zh_tw: 世界高中
    En: World Senior High School
  StopBoarding: 0
  StopSequence: 25
  StopPosition:
    PositionLat: 24.78218
    PositionLon: 121.02008
  RouteUID: HSZ0010
  SubRouteUID: HSZ001001
  Direction: 0
- StopUID: HSZ291250
  StopID: '291250'
  StopName:
    Zh_tw: 關東橋
    En: Guan Dong Qiao
  StopBoarding: 0
  StopSequence: 26
  StopPosition:
    PositionLat: 24.78155
    PositionLon: 121.02296
  RouteUID: HSZ0010
  SubRouteUID: HSZ001001
  Direction: 0
- StopUID: HSZ291249
  StopID: '291249'
  StopName:
    Zh_tw: 關東新村
    En: Guan Dong Xin Village
  StopBoarding: 0
  StopSequence: 27
  StopPosition:
    PositionLat: 24.78122
    PositionLon: 121.02555
  RouteUID: HSZ0010
  SubRouteUID: HSZ001001
  Direction: 0
- StopUID: HSZ291232
  StopID: '291232'
  StopName:
    Zh_tw: 竹中口
    En: Zhu Zhong Kou
  StopBoarding: 0
  StopSequence: 28
  StopPosition:
    PositionLat: 24.78087
    PositionLon: 121.02862
  RouteUID: HSZ0010
  SubRouteUID: HSZ001001
  Direction: 0
- StopUID: HSZ291231
  StopID: '291231'
  StopName:
    Zh_tw: 竹中
    En: Zhu Zhong
  StopBoarding: 0
  StopSequence: 29
  StopPosition:
    PositionLat: 24.78114
    PositionLon: 121.03033
  RouteUID: HSZ0010
  SubRouteUID: HSZ001001
  Direction: 0
- StopUID: HSZ291261
  StopID: '291261'
  StopName:
    Zh_tw: 竹中口
    En: Zhu Zhong Kou
  StopBoarding: 0
  StopSequence: 30
  StopPosition:
    PositionLat: 24.78094
    PositionLon: 121.02856
  RouteUID: HSZ0010
  SubRouteUID: HSZ001001
  Direction: 0
- StopUID: HSZ291278
  StopID: '291278'
  StopName:
    Zh_tw: 關東新村
    En: Guan Dong Xin Village
  StopBoarding: 0
  StopSequence: 31
  StopPosition:
    PositionLat: 24.7813
    PositionLon: 121.02554
  RouteUID: HSZ0010
  SubRouteUID: HSZ001001
  Direction: 0
- StopUID: HSZ291279
  StopID: '291279'
  StopName:
    Zh_tw: 關東橋
    En: Guan Dong Qiao
  StopBoarding: 0
  StopSequence: 32
  StopPosition:
    PositionLat: 24.78152
    PositionLon: 121.02303
  RouteUID: HSZ0010
  SubRouteUID: HSZ001001
  Direction: 0
- StopUID: HSZ291257
  StopID: '291257'
  StopName:
    Zh_tw: 世界高中
    En: World Senior High School
  StopBoarding: 0
  StopSequence: 33
  StopPosition:
    PositionLat: 24.78233
    PositionLon: 121.02004
  RouteUID: HSZ0010
  SubRouteUID: HSZ001001
  Direction: 0
- StopUID: HSZ291258
  StopID: '291258'
  StopName:
    Zh_tw: 仙水
    En: Xian Shui
  StopBoarding: 0
  StopSequence: 34
  StopPosition:
    PositionLat: 24.7829
    PositionLon: 121.01873
  RouteUID: HSZ0010
  SubRouteUID: HSZ001001
  Direction: 0
- StopUID: HSZ291254
  StopID: '291254'
  StopName:
    Zh_tw: 日光燈
    En: Ri Guang Deng
  StopBoarding: 0
  StopSequence: 35
  StopPosition:
    PositionLat: 24.784026
    PositionLon: 121.015653
  RouteUID: HSZ0010
  SubRouteUID: HSZ001001
  Direction: 0
- StopUID: HSZ291269
  StopID: '291269'
  StopName:
    Zh_tw: 科學園區別墅
    En: Hsinchu Science Park Villa
  StopBoarding: 0
  StopSequence: 36
  StopPosition:
    PositionLat: 24.78473
    PositionLon: 121.014
  RouteUID: HSZ0010
  SubRouteUID: HSZ001001
  Direction: 0
- StopUID: HSZ293791
  StopID: '293791'
  StopName:
    Zh_tw: 光武國中
    En: Guang Wu Junior High School
  StopBoarding: 0
  StopSequence: 37
  StopPosition:
    PositionLat: 24.78576
    PositionLon: 121.012
  RouteUID: HSZ0010
  SubRouteUID: HSZ001001
  Direction: 0
- StopUID: HSZ291263
  StopID: '291263'
  StopName:
    Zh_tw: 和平
    En: He Ping
  StopBoarding: 0
  StopSequence: 38
  StopPosition:
    PositionLat: 24.78664
    PositionLon: 121.01083
  RouteUID: HSZ0010
  SubRouteUID: HSZ001001
  Direction: 0
- StopUID: HSZ291268
  StopID: '291268'
  StopName:
    Zh_tw: 科學園區
    En: Hsinchu Science Park
  StopBoarding: 0
  StopSequence: 39
  StopPosition:
    PositionLat: 24.78877
    PositionLon: 121.00802
  RouteUID: HSZ0010
  SubRouteUID: HSZ001001
  Direction: 0
- StopUID: HSZ291274
  StopID: '291274'
  StopName:
    Zh_tw: 過溝
    En: Guo Gou
  StopBoarding: 0
  StopSequence: 40
  StopPosition:
    PositionLat: 24.79276
    PositionLon: 121.00237
  RouteUID: HSZ0010
  SubRouteUID: HSZ001001
  Direction: 0
- StopUID: HSZ291267
  StopID: '291267'
  StopName:
    Zh_tw: 金城新村口
    En: Jin Cheng Xin Village Kou
  StopBoarding: 0
  StopSequence: 41
  StopPosition:
    PositionLat: 24.79369
    PositionLon: 121.00086
  RouteUID: HSZ0010
  SubRouteUID: HSZ001001
  Direction: 0
- StopUID: HSZ291253
  StopID: '291253'
  StopName:
    Zh_tw: 文教新村
    En: Wen Jiao Xin Village
  StopBoarding: 0
  StopSequence: 42
  StopPosition:
    PositionLat: 24.79531
    PositionLon: 120.99877
  RouteUID: HSZ0010
  SubRouteUID: HSZ001001
  Direction: 0
- StopUID: HSZ291271
  StopID: '291271'
  StopName:
    Zh_tw: 清大
    En: National Tsing Hua University
  StopBoarding: 0
  StopSequence: 43
  StopPosition:
    PositionLat: 24.79645
    PositionLon: 120.99747
  RouteUID: HSZ0010
  SubRouteUID: HSZ001001
  Direction: 0
- StopUID: HSZ291260
  StopID: '291260'
  StopName:
    Zh_tw: 光復中學
    En: Kuang-Fu Senior High School
  StopBoarding: 0
  StopSequence: 44
  StopPosition:
    PositionLat: 24.79834
    PositionLon: 120.99484
  RouteUID: HSZ0010
  SubRouteUID: HSZ001001
  Direction: 0
- StopUID: HSZ291270
  StopID: '291270'
  StopName:
    Zh_tw: 馬偕醫院
    En: Mackay Memorial Hospital
  StopBoarding: 0
  StopSequence: 45
  StopPosition:
    PositionLat: 24.79955
    PositionLon: 120.99188
  RouteUID: HSZ0010
  SubRouteUID: HSZ001001
  Direction: 0
- StopUID: HSZ291767
  StopID: '291767'
  StopName:
    Zh_tw: 學府路口
    En: Xue Fu Road Entrance
  StopBoarding: 0
  StopSequence: 46
  StopPosition:
    PositionLat: 24.8002363982494
    PositionLon: 120.986719624049
  RouteUID: HSZ0010
  SubRouteUID: HSZ001001
  Direction: 0
- StopUID: HSZ291768
  StopID: '291768'
  StopName:
    Zh_tw: 水源地
    En: Shui Yuan Di
  StopBoarding: 0
  StopSequence: 47
  StopPosition:
    PositionLat: 24.7978037536695
    PositionLon: 120.985658886138
  RouteUID: HSZ0010
  SubRouteUID: HSZ001001
  Direction: 0
- StopUID: HSZ291273
  StopID: '291273'
  StopName:
    Zh_tw: 新竹高商
    En: National Hsinchu Commercial & Vocational High School
  StopBoarding: 0
  StopSequence: 48
  StopPosition:
    PositionLat: 24.79688
    PositionLon: 120.98421
  RouteUID: HSZ0010
  SubRouteUID: HSZ001001
  Direction: 0
- StopUID: HSZ291272
  StopID: '291272'
  StopName:
    Zh_tw: 新竹高中
    En: National Hsinchu Senior High School
  StopBoarding: 0
  StopSequence: 49
  StopPosition:
    PositionLat: 24.79572
    PositionLon: 120.98103
  RouteUID: HSZ0010
  SubRouteUID: HSZ001001
  Direction: 0
- StopUID: HSZ291264
  StopID: '291264'
  StopName:
    Zh_tw: 東山文教院
    En: Dong Shan Wen Jiao Yuan
  StopBoarding: 0
  StopSequence: 50
  StopPosition:
    PositionLat: 24.79738
    PositionLon: 120.979
  RouteUID: HSZ0010
  SubRouteUID: HSZ001001
  Direction: 0
- StopUID: HSZ291276
  StopID: '291276'
  StopName:
    Zh_tw: 學園商場
    En: Xue Yuan Market
  StopBoarding: 0
  StopSequence: 51
  StopPosition:
    PositionLat: 24.79868
    PositionLon: 120.97799
  RouteUID: HSZ0010
  SubRouteUID: HSZ001001
  Direction: 0
- StopUID: HSZ291252
  StopID: '291252'
  StopName:
    Zh_tw: 公園
    En: Park
  StopBoarding: 0
  StopSequence: 52
  StopPosition:
    PositionLat: 24.801711
    PositionLon: 120.977587
  RouteUID: HSZ0010
  SubRouteUID: HSZ001001
  Direction: 0
- StopUID: HSZ291262
  StopID: '291262'
  StopName:
    Zh_tw: 老人大學
    En: University for the elderly
  StopBoarding: 0
  StopSequence: 53
  StopPosition:
    PositionLat: 24.80285
    PositionLon: 120.97949
  RouteUID: HSZ0010
  SubRouteUID: HSZ001001
  Direction: 0
- StopUID: HSZ291266
  StopID: '291266'
  StopName:
    Zh_tw: 東門國小
    En: Tung Men Primary School
  StopBoarding: 0
  StopSequence: 54
  StopPosition:
    PositionLat: 24.80643
    PositionLon: 120.97365
  RouteUID: HSZ0010
  SubRouteUID: HSZ001001
  Direction: 0
- StopUID: HSZ291277
  StopID: '291277'
  StopName:
    Zh_tw: 親仁里
    En: Qin Ren Village
  StopBoarding: 0
  StopSequence: 55
  StopPosition:
    PositionLat: 24.80745
    PositionLon: 120.97168
  RouteUID: HSZ0010
  SubRouteUID: HSZ001001
  Direction: 0
- StopUID: HSZ291265
  StopID: '291265'
  StopName:
    Zh_tw: 東門市場
    En: Dong Men Market
  StopBoarding: 0
  StopSequence: 56
  StopPosition:
    PositionLat: 24.80561
    PositionLon: 120.96954
  RouteUID: HSZ0010
  SubRouteUID: HSZ001001
  Direction: 0
- StopUID: HSZ291746
  StopID: '291746'
  StopName:
    Zh_tw: 火車站
    En: Train Station
  StopBoarding: -1
  StopSequence: 57
  StopPosition:
    PositionLat: 24.803239
    PositionLon: 120.971151
  RouteUID: HSZ0010
  SubRouteUID: HSZ001001
  Direction: 0
- StopUID: HSZ291761
  StopID: '291761'
  StopName:
    Zh_tw: 火車站
    En: ''
  StopBoarding: 1
  StopSequence: 1
  StopPosition:
    PositionLat: 24.803308
    PositionLon: 120.97182
  RouteUID: HSZ0020
  SubRouteUID: HSZ002001
  Direction: 0
- StopUID: HSZ291741
  StopID: '291741'
  StopName:
    Zh_tw: 東門市場
    En: ''
  StopBoarding: 0
  StopSequence: 2
  StopPosition:
    PositionLat: 24.805219
    PositionLon: 120.969633
  RouteUID: HSZ0020
  SubRouteUID: HSZ002001
  Direction: 0
- StopUID: HSZ291248
  StopID: '291248'
  StopName:
    Zh_tw: 親仁里
    En: Qin Ren Village
  StopBoarding: 0
  StopSequence: 3
  StopPosition:
    PositionLat: 24.8075
    PositionLon: 120.97154
  RouteUID: HSZ0020
  SubRouteUID: HSZ002001
  Direction: 0
- StopUID: HSZ291236
  StopID: '291236'
  StopName:
    Zh_tw: 東門國小
    En: Tung Men Primary School
  StopBoarding: 0
  StopSequence: 4
  StopPosition:
    PositionLat: 24.80624
    PositionLon: 120.97335
  RouteUID: HSZ0020
  SubRouteUID: HSZ002001
  Direction: 0
- StopUID: HSZ291223
  StopID: '291223'
  StopName:
    Zh_tw: 公園
    En: Park
  StopBoarding: 0
  StopSequence: 5
  StopPosition:
    PositionLat: 24.80104
    PositionLon: 120.97654
  RouteUID: HSZ0020
  SubRouteUID: HSZ002001
  Direction: 0
- StopUID: HSZ291247
  StopID: '291247'
  StopName:
    Zh_tw: 學園商場
    En: Xue Yuan Market
  StopBoarding: 0
  StopSequence: 6
  StopPosition:
    PositionLat: 24.79862
    PositionLon: 120.97773
  RouteUID: HSZ0020
  SubRouteUID: HSZ002001
  Direction: 0
- StopUID: HSZ291285
  StopID: '291285'
  StopName:
    Zh_tw: 博愛街口
    En: ''
  StopBoarding: 0
  StopSequence: 7
  StopPosition:
    PositionLat: 24.79958
    PositionLon: 120.98126
  RouteUID: HSZ0020
  SubRouteUID: HSZ002001
  Direction: 0
- StopUID: HSZ291281
  StopID: '291281'
  StopName:
    Zh_tw: 交大博愛校區
    En: ''
  StopBoarding: 0
  StopSequence: 8
  StopPosition:
    PositionLat: 24.79853
    PositionLon: 120.98314
  RouteUID: HSZ0020
  SubRouteUID: HSZ002001
  Direction: 0
- StopUID: HSZ291225
  StopID: '291225'
  StopName:
    Zh_tw: 水源地
    En: Shui Yuan Di
  StopBoarding: 0
  StopSequence: 9
  StopPosition:
    PositionLat: 24.79779
    PositionLon: 120.98582
  RouteUID: HSZ0020
  SubRouteUID: HSZ002001
  Direction: 0
- StopUID: HSZ291246
  StopID: '291246'
  StopName:
    Zh_tw: 學府路口
    En: Xue Fu Road Entrance
  StopBoarding: 0
  StopSequence: 10
  StopPosition:
    PositionLat: 24.80048
    PositionLon: 120.98692
  RouteUID: HSZ0020
  SubRouteUID: HSZ002001
  Direction: 0
- StopUID: HSZ291222
  StopID: '291222'
  StopName:
    Zh_tw: 工研院光復院區
    En: ITRI Kuang fu Compound
  StopBoarding: 0
  StopSequence: 11
  StopPosition:
    PositionLat: 24.80046
    PositionLon: 120.98891
  RouteUID: HSZ0020
  SubRouteUID: HSZ002001
  Direction: 0
- StopUID: HSZ291241
  StopID: '291241'
  StopName:
    Zh_tw: 馬偕醫院
    En: Mackay Memorial Hospital, HsinChu
  StopBoarding: 0
  StopSequence: 12
  StopPosition:
    PositionLat: 24.79999
    PositionLon: 120.99036
  RouteUID: HSZ0020
  SubRouteUID: HSZ002001
  Direction: 0
- StopUID: HSZ291240
  StopID: '291240'
  StopName:
    Zh_tw: 海軍新村
    En: Hai Jun Xin Village
  StopBoarding: 0
  StopSequence: 13
  StopPosition:
    PositionLat: 24.79931
    PositionLon: 120.99223
  RouteUID: HSZ0020
  SubRouteUID: HSZ002001
  Direction: 0
- StopUID: HSZ291230
  StopID: '291230'
  StopName:
    Zh_tw: 光復中學
    En: Kuang-Fu Senior High School
  StopBoarding: 0
  StopSequence: 14
  StopPosition:
    PositionLat: 24.79824
    PositionLon: 120.99456
  RouteUID: HSZ0020
  SubRouteUID: HSZ002001
  Direction: 0
- StopUID: HSZ291242
  StopID: '291242'
  StopName:
    Zh_tw: 清大
    En: National Tsing Hua University
  StopBoarding: 0
  StopSequence: 15
  StopPosition:
    PositionLat: 24.79631
    PositionLon: 120.99745
  RouteUID: HSZ0020
  SubRouteUID: HSZ002001
  Direction: 0
- StopUID: HSZ291237
  StopID: '291237'
  StopName:
    Zh_tw: 金城新村口
    En: Jin Cheng Xin Village Kou
  StopBoarding: 0
  StopSequence: 16
  StopPosition:
    PositionLat: 24.79378
    PositionLon: 121.00052
  RouteUID: HSZ0020
  SubRouteUID: HSZ002001
  Direction: 0
- StopUID: HSZ293681
  StopID: '293681'
  StopName:
    Zh_tw: 過溝
    En: Guo Gou
  StopBoarding: 0
  StopSequence: 17
  StopPosition:
    PositionLat: 24.79177
    PositionLon: 121.00323
  RouteUID: HSZ0020
  SubRouteUID: HSZ002001
  Direction: 0
- StopUID: HSZ291283
  StopID: '291283'
  StopName:
    Zh_tw: 神學院
    En: ''
  StopBoarding: 0
  StopSequence: 18
  StopPosition:
    PositionLat: 24.78907
    PositionLon: 121.00266
  RouteUID: HSZ0020
  SubRouteUID: HSZ002001
  Direction: 0
- StopUID: HSZ291284
  StopID: '291284'
  StopName:
    Zh_tw: 梅竹山莊
    En: ''
  StopBoarding: 0
  StopSequence: 19
  StopPosition:
    PositionLat: 24.78955
    PositionLon: 121.00047
  RouteUID: HSZ0020
  SubRouteUID: HSZ002001
  Direction: 0
- StopUID: HSZ291280
  StopID: '291280'
  StopName:
    Zh_tw: 交大光復校區
    En: ''
  StopBoarding: -1
  StopSequence: 20
  StopPosition:
    PositionLat: 24.78831
    PositionLon: 120.99941
  RouteUID: HSZ0020
  SubRouteUID: HSZ002001
  Direction: 0
- StopUID: HSZ291280
  StopID: '291280'
  StopName:
    Zh_tw: 交大光復校區
    En: ''
  StopBoarding: 1
  StopSequence: 1
  StopPosition:
    PositionLat: 24.78831
    PositionLon: 120.99941
  RouteUID: HSZ0020
  SubRouteUID: HSZ002002
  Direction: 1
- StopUID: HSZ291290
  StopID: '291290'
  StopName:
    Zh_tw: 梅竹山莊
    En: ''
  StopBoarding: 0
  StopSequence: 2
  StopPosition:
    PositionLat: 24.7895
    PositionLon: 121.00044
  RouteUID: HSZ0020
  SubRouteUID: HSZ002002
  Direction: 1
- StopUID: HSZ291289
  StopID: '291289'
  StopName:
    Zh_tw: 神學院
    En: ''
  StopBoarding: 0
  StopSequence: 3
  StopPosition:
    PositionLat: 24.78901
    PositionLon: 121.00253
  RouteUID: HSZ0020
  SubRouteUID: HSZ002002
  Direction: 1
- StopUID: HSZ291274
  StopID: '291274'
  StopName:
    Zh_tw: 過溝
    En: Guo Gou
  StopBoarding: 0
  StopSequence: 4
  StopPosition:
    PositionLat: 24.79276
    PositionLon: 121.00237
  RouteUID: HSZ0020
  SubRouteUID: HSZ002002
  Direction: 1
- StopUID: HSZ291267
  StopID: '291267'
  StopName:
    Zh_tw: 金城新村口
    En: Jin Cheng Xin Village Kou
  StopBoarding: 0
  StopSequence: 5
  StopPosition:
    PositionLat: 24.79369
    PositionLon: 121.00086
  RouteUID: HSZ0020
  SubRouteUID: HSZ002002
  Direction: 1
- StopUID: HSZ291253
  StopID: '291253'
  StopName:
    Zh_tw: 文教新村
    En: Wen Jiao Xin Village
  StopBoarding: 0
  StopSequence: 6
  StopPosition:
    PositionLat: 24.79531
    PositionLon: 120.99877
  RouteUID: HSZ0020
  SubRouteUID: HSZ002002
  Direction: 1
- StopUID: HSZ291271
  StopID: '291271'
  StopName:
    Zh_tw: 清大
    En: National Tsing Hua University
  StopBoarding: 0
  StopSequence: 7
  StopPosition:
    PositionLat: 24.79645
    PositionLon: 120.99747
  RouteUID: HSZ0020
  SubRouteUID: HSZ002002
  Direction: 1
- StopUID: HSZ291260
  StopID: '291260'
  StopName:
    Zh_tw: 光復中學
    En: Kuang-Fu Senior High School
  StopBoarding: 0
  StopSequence: 8
  StopPosition:
    PositionLat: 24.79834
    PositionLon: 120.99484
  RouteUID: HSZ0020
  SubRouteUID: HSZ002002
  Direction: 1
- StopUID: HSZ291270
  StopID: '291270'
  StopName:
    Zh_tw: 馬偕醫院
    En: Mackay Memorial Hospital
  StopBoarding: 0
  StopSequence: 9
  StopPosition:
    PositionLat: 24.79955
    PositionLon: 120.99188
  RouteUID: HSZ0020
  SubRouteUID: HSZ002002
  Direction: 1
- StopUID: HSZ291767
  StopID: '291767'
  StopName:
    Zh_tw: 學府路口
    En: Xue Fu Road Entrance
  StopBoarding: 0
  StopSequence: 10
  StopPosition:
    PositionLat: 24.8002363982494
    PositionLon: 120.986719624049
  RouteUID: HSZ0020
  SubRouteUID: HSZ002002
  Direction: 1
- StopUID: HSZ291768
  StopID: '291768'
  StopName:
    Zh_tw: 水源地
    En: Shui Yuan Di
  StopBoarding: 0
  StopSequence: 11
  StopPosition:
    PositionLat: 24.7978037536695
    PositionLon: 120.985658886138
  RouteUID: HSZ0020
  SubRouteUID: HSZ002002
  Direction: 1
- StopUID: HSZ291287
  StopID: '291287'
  StopName:
    Zh_tw: 交大博愛校區
    En: ''
  StopBoarding: 0
  StopSequence: 12
  StopPosition:
    PositionLat: 24.79842
    PositionLon: 120.98382
  RouteUID: HSZ0020
  SubRouteUID: HSZ002002
  Direction: 1
- StopUID: HSZ291291
  StopID: '291291'
  StopName:
    Zh_tw: 博愛街口
    En: ''
  StopBoarding: 0
  StopSequence: 13
  StopPosition:
    PositionLat: 24.79949
    PositionLon: 120.98119
  RouteUID: HSZ0020
  SubRouteUID: HSZ002002
  Direction: 1
- StopUID: HSZ291276
  StopID: '291276'
  StopName:
    Zh_tw: 學園商場
    En: Xue Yuan Market
  StopBoarding: 0
  StopSequence: 14
  StopPosition:
    PositionLat: 24.79868
    PositionLon: 120.97799
  RouteUID: HSZ0020
  SubRouteUID: HSZ002002
  Direction: 1
- StopUID: HSZ291252
  StopID: '291252'
  StopName:
    Zh_tw: 公園
    En: Park
  StopBoarding: 0
  StopSequence: 15
  StopPosition:
    PositionLat: 24.801711
    PositionLon: 120.977587
  RouteUID: HSZ0020
  SubRouteUID: HSZ002002
  Direction: 1
- StopUID: HSZ291262
  StopID: '291262'
  StopName:
    Zh_tw: 老人大學
    En: University for the elderly
  StopBoarding: 0
  StopSequence: 16
  StopPosition:
    PositionLat: 24.80285
    PositionLon: 120.97949
  RouteUID: HSZ0020
  SubRouteUID: HSZ002002
  Direction: 1
- StopUID: HSZ291266
  StopID: '291266'
  StopName:
    Zh_tw: 東門國小
    En: Tung Men Primary School
  StopBoarding: 0
  StopSequence: 17
  StopPosition:
    PositionLat: 24.80643
    PositionLon: 120.97365
  RouteUID: HSZ0020
  SubRouteUID: HSZ002002
  Direction: 1
- StopUID: HSZ291772
  StopID: '291772'
  StopName:
    Zh_tw: 親仁里
    En: ''
  StopBoarding: 0
  StopSequence: 18
  StopPosition:
    PositionLat: 24.807445
    PositionLon: 120.971667
  RouteUID: HSZ0020
  SubRouteUID: HSZ002002
  Direction: 1
- StopUID: HSZ291265
  StopID: '291265'
  StopName:
    Zh_tw: 東門市場
    En: Dong Men Market
  StopBoarding: 0
  StopSequence: 19
  StopPosition:
    PositionLat: 24.80561
    PositionLon: 120.96954
  RouteUID: HSZ0020
  SubRouteUID: HSZ002002
  Direction: 1
- StopUID: HSZ291747
  StopID: '291747'
  StopName:
    Zh_tw: 火車站
    En: ''
  StopBoarding: -1
  StopSequence: 20
  StopPosition:
    PositionLat: 24.80312
    PositionLon: 120.971227
  RouteUID: HSZ0020
  SubRouteUID: HSZ002002
  Direction: 1
- StopUID: HSZ291761
  StopID: '291761'
  StopName:
    Zh_tw: 火車站
    En: ''
  StopBoarding: 1
  StopSequence: 1
  StopPosition:
    PositionLat: 24.803308
    PositionLon: 120.97182
  RouteUID: HSZ0020
  SubRouteUID: HSZ0020A1
  Direction: 0
- StopUID: HSZ291742
  StopID: '291742'
  StopName:
    Zh_tw: 東門市場
    En: Dong Men Market
  StopBoarding: 0
  StopSequence: 2
  StopPosition:
    PositionLat: 24.805256
    PositionLon: 120.969606
  RouteUID: HSZ0020
  SubRouteUID: HSZ0020A1
  Direction: 0
- StopUID: HSZ291248
  StopID: '291248'
  StopName:
    Zh_tw: 親仁里
    En: Qin Ren Village
  StopBoarding: 0
  StopSequence: 3
  StopPosition:
    PositionLat: 24.8075
    PositionLon: 120.97154
  RouteUID: HSZ0020
  SubRouteUID: HSZ0020A1
  Direction: 0
- StopUID: HSZ291236
  StopID: '291236'
  StopName:
    Zh_tw: 東門國小
    En: Tung Men Primary School
  StopBoarding: 0
  StopSequence: 4
  StopPosition:
    PositionLat: 24.80624
    PositionLon: 120.97335
  RouteUID: HSZ0020
  SubRouteUID: HSZ0020A1
  Direction: 0
- StopUID: HSZ291223
  StopID: '291223'
  StopName:
    Zh_tw: 公園
    En: Park
  StopBoarding: 0
  StopSequence: 5
  StopPosition:
    PositionLat: 24.80104
    PositionLon: 120.97654
  RouteUID: HSZ0020
  SubRouteUID: HSZ0020A1
  Direction: 0
- StopUID: HSZ291247
  StopID: '291247'
  StopName:
    Zh_tw: 學園商場
    En: Xue Yuan Market
  StopBoarding: 0
  StopSequence: 6
  StopPosition:
    PositionLat: 24.79862
    PositionLon: 120.97773
  RouteUID: HSZ0020
  SubRouteUID: HSZ0020A1
  Direction: 0
- StopUID: HSZ291285
  StopID: '291285'
  StopName:
    Zh_tw: 博愛街口
    En: ''
  StopBoarding: 0
  StopSequence: 7
  StopPosition:
    PositionLat: 24.79958
    PositionLon: 120.98126
  RouteUID: HSZ0020
  SubRouteUID: HSZ0020A1
  Direction: 0
- StopUID: HSZ291281
  StopID: '291281'
  StopName:
    Zh_tw: 交大博愛校區
    En: ''
  StopBoarding: 0
  StopSequence: 8
  StopPosition:
    PositionLat: 24.79853
    PositionLon: 120.98314
  RouteUID: HSZ0020
  SubRouteUID: HSZ0020A1
  Direction: 0
- StopUID: HSZ291225
  StopID: '291225'
  StopName:
    Zh_tw: 水源地
    En: Shui Yuan Di
  StopBoarding: 0
  StopSequence: 9
  StopPosition:
    PositionLat: 24.79779
    PositionLon: 120.98582
  RouteUID: HSZ0020
  SubRouteUID: HSZ0020A1
  Direction: 0
- StopUID: HSZ291246
  StopID: '291246'
  StopName:
    Zh_tw: 學府路口
    En: Xue Fu Road Entrance
  StopBoarding: 0
  StopSequence: 10
  StopPosition:
    PositionLat: 24.80048
    PositionLon: 120.98692
  RouteUID: HSZ0020
  SubRouteUID: HSZ0020A1
  Direction: 0
- StopUID: HSZ291222
  StopID: '291222'
  StopName:
    Zh_tw: 工研院光復院區
    En: ITRI Kuang fu Compound
  StopBoarding: 0
  StopSequence: 11
  StopPosition:
    PositionLat: 24.80046
    PositionLon: 120.98891
  RouteUID: HSZ0020
  SubRouteUID: HSZ0020A1
  Direction: 0
- StopUID: HSZ291241
  StopID: '291241'
  StopName:
    Zh_tw: 馬偕醫院
    En: Mackay Memorial Hospital, HsinChu
  StopBoarding: 0
  StopSequence: 12
  StopPosition:
    PositionLat: 24.79999
    PositionLon: 120.99036
  RouteUID: HSZ0020
  SubRouteUID: HSZ0020A1
  Direction: 0
- StopUID: HSZ291240
  StopID: '291240'
  StopName:
    Zh_tw: 海軍新村
    En: Hai Jun Xin Village
  StopBoarding: 0
  StopSequence: 13
  StopPosition:
    PositionLat: 24.79931
    PositionLon: 120.99223
  RouteUID: HSZ0020
  SubRouteUID: HSZ0020A1
  Direction: 0
- StopUID: HSZ291230
  StopID: '291230'
  StopName:
    Zh_tw: 光復中學
    En: Kuang-Fu Senior High School
  StopBoarding: 0
  StopSequence: 14
  StopPosition:
    PositionLat: 24.79824
    PositionLon: 120.99456
  RouteUID: HSZ0020
  SubRouteUID: HSZ0020A1
  Direction: 0
- StopUID: HSZ291293
  StopID: '291293'
  StopName:
    Zh_tw: 文教新村
    En: ''
  StopBoarding: 0
  StopSequence: 15
  StopPosition:
    PositionLat: 24.79667
    PositionLon: 120.99953
  RouteUID: HSZ0020
  SubRouteUID: HSZ0020A1
  Direction: 0
- StopUID: HSZ291295
  StopID: '291295'
  StopName:
    Zh_tw: 建功高中
    En: ''
  StopBoarding: 0
  StopSequence: 16
  StopPosition:
    PositionLat: 24.796959996001
    PositionLon: 121.001274913542
  RouteUID: HSZ0020
  SubRouteUID: HSZ0020A1
  Direction: 0
- StopUID: HSZ291296
  StopID: '291296'
  StopName:
    Zh_tw: 貿易二村
    En: ''
  StopBoarding: 0
  StopSequence: 17
  StopPosition:
    PositionLat: 24.79593
    PositionLon: 121.0022
  RouteUID: HSZ0020
  SubRouteUID: HSZ0020A1
  Direction: 0
- StopUID: HSZ291294
  StopID: '291294'
  StopName:
    Zh_tw: 建功公園
    En: ''
  StopBoarding: 0
  StopSequence: 18
  StopPosition:
    PositionLat: 24.79427
    PositionLon: 121.00258
  RouteUID: HSZ0020
  SubRouteUID: HSZ0020A1
  Direction: 0
- StopUID: HSZ293681
  StopID: '293681'
  StopName:
    Zh_tw: 過溝
    En: Guo Gou
  StopBoarding: 0
  StopSequence: 19
  StopPosition:
    PositionLat: 24.79177
    PositionLon: 121.00323
  RouteUID: HSZ0020
  SubRouteUID: HSZ0020A1
  Direction: 0
- StopUID: HSZ291283
  StopID: '291283'
  StopName:
    Zh_tw: 神學院
    En: ''
  StopBoarding: 0
  StopSequence: 20
  StopPosition:
    PositionLat: 24.78907
    PositionLon: 121.00266
  RouteUID: HSZ0020
  SubRouteUID: HSZ0020A1
  Direction: 0
- StopUID: HSZ291284
  StopID: '291284'
  StopName:
    Zh_tw: 梅竹山莊
    En: ''
  StopBoarding: 0
  StopSequence: 21
  StopPosition:
    PositionLat: 24.78955
    PositionLon: 121.00047
  RouteUID: HSZ0020
  SubRouteUID: HSZ0020A1
  Direction: 0
- StopUID: HSZ291280
  StopID: '291280'
  StopName:
    Zh_tw: 交大光復校區
    En: ''
  StopBoarding: -1
  StopSequence: 22
  StopPosition:
    PositionLat: 24.78831
    PositionLon: 120.99941
  RouteUID: HSZ0020
  SubRouteUID: HSZ0020A1
  Direction: 0
- StopUID: HSZ291280
  StopID: '291280'
  StopName:
    Zh_tw: 交大光復校區
    En: ''
  StopBoarding: 1
  StopSequence: 1
  StopPosition:
    PositionLat: 24.78831
    PositionLon: 120.99941
  RouteUID: HSZ0020
  SubRouteUID: HSZ0020A2
  Direction: 1
- StopUID: HSZ291290
  StopID: '291290'
  StopName:
    Zh_tw: 梅竹山莊
    En: ''
  StopBoarding: 0
  StopSequence: 2
  StopPosition:
    PositionLat: 24.7895
    PositionLon: 121.00044
  RouteUID: HSZ0020
  SubRouteUID: HSZ0020A2
  Direction: 1
- StopUID: HSZ291289
  StopID: '291289'
  StopName:
    Zh_tw: 神學院
    En: ''
  StopBoarding: 0
  StopSequence: 3
  StopPosition:
    PositionLat: 24.78901
    PositionLon: 121.00253
  RouteUID: HSZ0020
  SubRouteUID: HSZ0020A2
  Direction: 1
- StopUID: HSZ291274
  StopID: '291274'
  StopName:
    Zh_tw: 過溝
    En: Guo Gou
  StopBoarding: 0
  StopSequence: 4
  StopPosition:
    PositionLat: 24.79276
    PositionLon: 121.00237
  RouteUID: HSZ0020
  SubRouteUID: HSZ0020A2
  Direction: 1
- StopUID: HSZ291782
  StopID: '291782'
  StopName:
    Zh_tw: 建功公園
    En: ''
  StopBoarding: 0
  StopSequence: 5
  StopPosition:
    PositionLat: 24.79412
    PositionLon: 121.00272
  RouteUID: HSZ0020
  SubRouteUID: HSZ0020A2
  Direction: 1
- StopUID: HSZ291781
  StopID: '291781'
  StopName:
    Zh_tw: 貿易二村
    En: ''
  StopBoarding: 0
  StopSequence: 6
  StopPosition:
    PositionLat: 24.7959
    PositionLon: 121.00227
  RouteUID: HSZ0020
  SubRouteUID: HSZ0020A2
  Direction: 1
- StopUID: HSZ291780
  StopID: '291780'
  StopName:
    Zh_tw: 建功高中
    En: ''
  StopBoarding: 0
  StopSequence: 7
  StopPosition:
    PositionLat: 24.79704
    PositionLon: 121.00174
  RouteUID: HSZ0020
  SubRouteUID: HSZ0020A2
  Direction: 1
- StopUID: HSZ291837
  StopID: '291837'
  StopName:
    Zh_tw: 文教新村
    En: ''
  StopBoarding: 0
  StopSequence: 8
  StopPosition:
    PositionLat: 24.79671
    PositionLon: 120.999276
  RouteUID: HSZ0020
  SubRouteUID: HSZ0020A2
  Direction: 1
- StopUID: HSZ291271
  StopID: '291271'
  StopName:
    Zh_tw: 清大
    En: National Tsing Hua University
  StopBoarding: 0
  StopSequence: 9
  StopPosition:
    PositionLat: 24.79645
    PositionLon: 120.99747
  RouteUID: HSZ0020
  SubRouteUID: HSZ0020A2
  Direction: 1
- StopUID: HSZ291260
  StopID: '291260'
  StopName:
    Zh_tw: 光復中學
    En: Kuang-Fu Senior High School
  StopBoarding: 0
  StopSequence: 10
  StopPosition:
    PositionLat: 24.79834
    PositionLon: 120.99484
  RouteUID: HSZ0020
  SubRouteUID: HSZ0020A2
  Direction: 1
- StopUID: HSZ291270
  StopID: '291270'
  StopName:
    Zh_tw: 馬偕醫院
    En: Mackay Memorial Hospital
  StopBoarding: 0
  StopSequence: 11
  StopPosition:
    PositionLat: 24.79955
    PositionLon: 120.99188
  RouteUID: HSZ0020
  SubRouteUID: HSZ0020A2
  Direction: 1
- StopUID: HSZ291767
  StopID: '291767'
  StopName:
    Zh_tw: 學府路口
    En: Xue Fu Road Entrance
  StopBoarding: 0
  StopSequence: 12
  StopPosition:
    PositionLat: 24.8002363982494
    PositionLon: 120.986719624049
  RouteUID: HSZ0020
  SubRouteUID: HSZ0020A2
  Direction: 1
- StopUID: HSZ291768
  StopID: '291768'
  StopName:
    Zh_tw: 水源地
    En: Shui Yuan Di
  StopBoarding: 0
  StopSequence: 13
  StopPosition:
    PositionLat: 24.7978037536695
    PositionLon: 120.985658886138
  RouteUID: HSZ0020
  SubRouteUID: HSZ0020A2
  Direction: 1
- StopUID: HSZ291287
  StopID: '291287'
  StopName:
    Zh_tw: 交大博愛校區
    En: ''
  StopBoarding: 0
  StopSequence: 14
  StopPosition:
    PositionLat: 24.79842
    PositionLon: 120.98382
  RouteUID: HSZ0020
  SubRouteUID: HSZ0020A2
  Direction: 1
- StopUID: HSZ291291
  StopID: '291291'
  StopName:
    Zh_tw: 博愛街口
    En: ''
  StopBoarding: 0
  StopSequence: 15
  StopPosition:
    PositionLat: 24.79949
    PositionLon: 120.98119
  RouteUID: HSZ0020
  SubRouteUID: HSZ0020A2
  Direction: 1
- StopUID: HSZ291276
  StopID: '291276'
  StopName:
    Zh_tw: 學園商場
    En: Xue Yuan Market
  StopBoarding: 0
  StopSequence: 16
  StopPosition:
    PositionLat: 24.79868
    PositionLon: 120.97799
  RouteUID: HSZ0020
  SubRouteUID: HSZ0020A2
  Direction: 1
- StopUID: HSZ291252
  StopID: '291252'
  StopName:
    Zh_tw: 公園
    En: Park
  StopBoarding: 0
  StopSequence: 17
  StopPosition:
    PositionLat: 24.801711
    PositionLon: 120.977587
  RouteUID: HSZ0020
  SubRouteUID: HSZ0020A2
  Direction: 1
- StopUID: HSZ291262
  StopID: '291262'
  StopName:
    Zh_tw: 老人大學
    En: University for the elderly
  StopBoarding: 0
  StopSequence: 18
  StopPosition:
    PositionLat: 24.80285
    PositionLon: 120.97949
  RouteUID: HSZ0020
  SubRouteUID: HSZ0020A2
  Direction: 1
- StopUID: HSZ291266
  StopID: '291266'
  StopName:
    Zh_tw: 東門國小
    En: Tung Men Primary School
  StopBoarding: 0
  StopSequence: 19
  StopPosition:
    PositionLat: 24.80643
    PositionLon: 120.97365
  RouteUID: HSZ0020
  SubRouteUID: HSZ0020A2
  Direction: 1
- StopUID: HSZ291772
  StopID: '291772'
  StopName:
    Zh_tw: 親仁里
    En: ''
  StopBoarding: 0
  StopSequence: 20
  StopPosition:
    PositionLat: 24.807445
    PositionLon: 120.971667
  RouteUID: HSZ0020
  SubRouteUID: HSZ0020A2
  Direction: 1
- StopUID: HSZ291265
  StopID: '291265'
  StopName:
    Zh_tw: 東門市場
    En: Dong Men Market
  StopBoarding: 0
  StopSequence: 21
  StopPosition:
    PositionLat: 24.80561
    PositionLon: 120.96954
  RouteUID: HSZ0020
  SubRouteUID: HSZ0020A2
  Direction: 1
- StopUID: HSZ291747
  StopID: '291747'
  StopName:
    Zh_tw: 火車站
    En: ''
  StopBoarding: -1
  StopSequence: 22
  StopPosition:
    PositionLat: 24.80312
    PositionLon: 120.971227
  RouteUID: HSZ0020
  SubRouteUID: HSZ0020A2
  Direction: 1
- StopUID: HSZ291311
  StopID: '291311'
  StopName:
    Zh_tw: 總站
    En: ''
  StopBoarding: 1
  StopSequence: 1
  StopPosition:
    PositionLat: 24.80124
    PositionLon: 120.9706
  RouteUID: HSZ0100
  SubRouteUID: HSZ010001
  Direction: 0
- StopUID: HSZ291740
  StopID: '291740'
  StopName:
    Zh_tw: 火車站
    En: ''
  StopBoarding: 0
  StopSequence: 2
  StopPosition:
    PositionLat: 24.803691
    PositionLon: 120.971049
  RouteUID: HSZ0100
  SubRouteUID: HSZ010001
  Direction: 0
- StopUID: HSZ291306
  StopID: '291306'
  StopName:
    Zh_tw: 東門市場
    En: ''
  StopBoarding: 0
  StopSequence: 3
  StopPosition:
    PositionLat: 24.80528
    PositionLon: 120.969589
  RouteUID: HSZ0100
  SubRouteUID: HSZ010001
  Direction: 0
- StopUID: HSZ291307
  StopID: '291307'
  StopName:
    Zh_tw: 城隍廟
    En: Chenghuang Temple
  StopBoarding: 0
  StopSequence: 4
  StopPosition:
    PositionLat: 24.80502
    PositionLon: 120.96627
  RouteUID: HSZ0100
  SubRouteUID: HSZ010001
  Direction: 0
- StopUID: HSZ291304
  StopID: '291304'
  StopName:
    Zh_tw: 西門市場
    En: ''
  StopBoarding: 0
  StopSequence: 5
  StopPosition:
    PositionLat: 24.8043844930846
    PositionLon: 120.963850398636
  RouteUID: HSZ0100
  SubRouteUID: HSZ010001
  Direction: 0
- StopUID: HSZ291308
  StopID: '291308'
  StopName:
    Zh_tw: 棒球場
    En: ''
  StopBoarding: 0
  StopSequence: 6
  StopPosition:
    PositionLat: 24.80601
    PositionLon: 120.96201
  RouteUID: HSZ0100
  SubRouteUID: HSZ010001
  Direction: 0
- StopUID: HSZ291305
  StopID: '291305'
  StopName:
    Zh_tw: 服務中心
    En: ''
  StopBoarding: 0
  StopSequence: 7
  StopPosition:
    PositionLat: 24.80413
    PositionLon: 120.96069
  RouteUID: HSZ0100
  SubRouteUID: HSZ010001
  Direction: 0
- StopUID: HSZ291300
  StopID: '291300'
  StopName:
    Zh_tw: 新竹監獄
    En: ''
  StopBoarding: 0
  StopSequence: 8
  StopPosition:
    PositionLat: 24.80372
    PositionLon: 120.95924
  RouteUID: HSZ0100
  SubRouteUID: HSZ010001
  Direction: 0
- StopUID: HSZ291310
  StopID: '291310'
  StopName:
    Zh_tw: 監獄邊
    En: ''
  StopBoarding: 0
  StopSequence: 9
  StopPosition:
    PositionLat: 24.80432
    PositionLon: 120.95728
  RouteUID: HSZ0100
  SubRouteUID: HSZ010001
  Direction: 0
- StopUID: HSZ291297
  StopID: '291297'
  StopName:
    Zh_tw: 三廠
    En: ''
  StopBoarding: 0
  StopSequence: 10
  StopPosition:
    PositionLat: 24.80461
    PositionLon: 120.95534
  RouteUID: HSZ0100
  SubRouteUID: HSZ010001
  Direction: 0
- StopUID: HSZ291302
  StopID: '291302'
  StopName:
    Zh_tw: 台貿四村
    En: ''
  StopBoarding: 0
  StopSequence: 11
  StopPosition:
    PositionLat: 24.8018353680669
    PositionLon: 120.95535391249
  RouteUID: HSZ0100
  SubRouteUID: HSZ010001
  Direction: 0
- StopUID: HSZ291298
  StopID: '291298'
  StopName:
    Zh_tw: 中和路
    En: ''
  StopBoarding: 0
  StopSequence: 12
  StopPosition:
    PositionLat: 24.80135
    PositionLon: 120.95647
  RouteUID: HSZ0100
  SubRouteUID: HSZ010001
  Direction: 0
- StopUID: HSZ291299
  StopID: '291299'
  StopName:
    Zh_tw: 天公壇
    En: ''
  StopBoarding: 0
  StopSequence: 13
  StopPosition:
    PositionLat: 24.80005
    PositionLon: 120.95779
  RouteUID: HSZ0100
  SubRouteUID: HSZ010001
  Direction: 0
- StopUID: HSZ291312
  StopID: '291312'
  StopName:
    Zh_tw: 警光一村
    En: ''
  StopBoarding: 0
  StopSequence: 14
  StopPosition:
    PositionLat: 24.79733
    PositionLon: 120.95605
  RouteUID: HSZ0100
  SubRouteUID: HSZ010001
  Direction: 0
- StopUID: HSZ291309
  StopID: '291309'
  StopName:
    Zh_tw: 榮民之家
    En: ''
  StopBoarding: 0
  StopSequence: 15
  StopPosition:
    PositionLat: 24.7948
    PositionLon: 120.95518
  RouteUID: HSZ0100
  SubRouteUID: HSZ010001
  Direction: 0
- StopUID: HSZ291303
  StopID: '291303'
  StopName:
    Zh_tw: 成德高中
    En: ''
  StopBoarding: -1
  StopSequence: 16
  StopPosition:
    PositionLat: 24.79322
    PositionLon: 120.95284
  RouteUID: HSZ0100
  SubRouteUID: HSZ010001
  Direction: 0
- StopUID: HSZ291303
  StopID: '291303'
  StopName:
    Zh_tw: 成德高中
    En: ''
  StopBoarding: 1
  StopSequence: 1
  StopPosition:
    PositionLat: 24.79322
    PositionLon: 120.95284
  RouteUID: HSZ0100
  SubRouteUID: HSZ010002
  Direction: 1
- StopUID: HSZ291324
  StopID: '291324'
  StopName:
    Zh_tw: 榮民之家
    En: ''
  StopBoarding: 0
  StopSequence: 2
  StopPosition:
    PositionLat: 24.79472
    PositionLon: 120.95525
  RouteUID: HSZ0100
  SubRouteUID: HSZ010002
  Direction: 1
- StopUID: HSZ291326
  StopID: '291326'
  StopName:
    Zh_tw: 警光一村
    En: ''
  StopBoarding: 0
  StopSequence: 3
  StopPosition:
    PositionLat: 24.79743
    PositionLon: 120.95615
  RouteUID: HSZ0100
  SubRouteUID: HSZ010002
  Direction: 1
- StopUID: HSZ291315
  StopID: '291315'
  StopName:
    Zh_tw: 天公壇
    En: ''
  StopBoarding: 0
  StopSequence: 4
  StopPosition:
    PositionLat: 24.79959
    PositionLon: 120.95753
  RouteUID: HSZ0100
  SubRouteUID: HSZ010002
  Direction: 1
- StopUID: HSZ291314
  StopID: '291314'
  StopName:
    Zh_tw: 中和路
    En: ''
  StopBoarding: 0
  StopSequence: 5
  StopPosition:
    PositionLat: 24.8013
    PositionLon: 120.95645
  RouteUID: HSZ0100
  SubRouteUID: HSZ010002
  Direction: 1
- StopUID: HSZ291744
  StopID: '291744'
  StopName:
    Zh_tw: 台貿四村
    En: ''
  StopBoarding: 0
  StopSequence: 6
  StopPosition:
    PositionLat: 24.80192
    PositionLon: 120.95549
  RouteUID: HSZ0100
  SubRouteUID: HSZ010002
  Direction: 1
- StopUID: HSZ291313
  StopID: '291313'
  StopName:
    Zh_tw: 三廠
    En: ''
  StopBoarding: 0
  StopSequence: 7
  StopPosition:
    PositionLat: 24.80435
    PositionLon: 120.95539
  RouteUID: HSZ0100
  SubRouteUID: HSZ010002
  Direction: 1
- StopUID: HSZ291325
  StopID: '291325'
  StopName:
    Zh_tw: 監獄邊
    En: ''
  StopBoarding: 0
  StopSequence: 8
  StopPosition:
    PositionLat: 24.80424
    PositionLon: 120.95727
  RouteUID: HSZ0100
  SubRouteUID: HSZ010002
  Direction: 1
- StopUID: HSZ291316
  StopID: '291316'
  StopName:
    Zh_tw: 新竹監獄
    En: ''
  StopBoarding: 0
  StopSequence: 9
  StopPosition:
    PositionLat: 24.80359
    PositionLon: 120.95928
  RouteUID: HSZ0100
  SubRouteUID: HSZ010002
  Direction: 1
- StopUID: HSZ291320
  StopID: '291320'
  StopName:
    Zh_tw: 服務中心
    En: ''
  StopBoarding: 0
  StopSequence: 10
  StopPosition:
    PositionLat: 24.80441
    PositionLon: 120.96084
  RouteUID: HSZ0100
  SubRouteUID: HSZ010002
  Direction: 1
- StopUID: HSZ291323
  StopID: '291323'
  StopName:
    Zh_tw: 棒球場
    En: ''
  StopBoarding: 0
  StopSequence: 11
  StopPosition:
    PositionLat: 24.80623
    PositionLon: 120.96172
  RouteUID: HSZ0100
  SubRouteUID: HSZ010002
  Direction: 1
- StopUID: HSZ291319
  StopID: '291319'
  StopName:
    Zh_tw: 西門市場
    En: ''
  StopBoarding: 0
  StopSequence: 12
  StopPosition:
    PositionLat: 24.80415
    PositionLon: 120.96402
  RouteUID: HSZ0100
  SubRouteUID: HSZ010002
  Direction: 1
- StopUID: HSZ291322
  StopID: '291322'
  StopName:
    Zh_tw: 城隍廟
    En: Chenghuang Temple
  StopBoarding: 0
  StopSequence: 13
  StopPosition:
    PositionLat: 24.80534
    PositionLon: 120.96645
  RouteUID: HSZ0100
  SubRouteUID: HSZ010002
  Direction: 1
- StopUID: HSZ291265
  StopID: '291265'
  StopName:
    Zh_tw: 東門市場
    En: Dong Men Market
  StopBoarding: 0
  StopSequence: 14
  StopPosition:
    PositionLat: 24.80561
    PositionLon: 120.96954
  RouteUID: HSZ0100
  SubRouteUID: HSZ010002
  Direction: 1
- StopUID: HSZ291256
  StopID: '291256'
  StopName:
    Zh_tw: 火車站
    En: Train Station
  StopBoarding: -1
  StopSequence: 15
  StopPosition:
    PositionLat: 24.80332
    PositionLon: 120.9711
  RouteUID: HSZ0100
  SubRouteUID: HSZ010002
  Direction: 1
- StopUID: HSZ291301
  StopID: '291301'
  StopName:
    Zh_tw: 火車站
    En: ''
  StopBoarding: 1
  StopSequence: 1
  StopPosition:
    PositionLat: 24.80336
    PositionLon: 120.97114
  RouteUID: HSZ0110
  SubRouteUID: HSZ011001
  Direction: 0
- StopUID: HSZ291742
  StopID: '291742'
  StopName:
    Zh_tw: 東門市場
    En: Dong Men Market
  StopBoarding: 0
  StopSequence: 2
  StopPosition:
    PositionLat: 24.805256
    PositionLon: 120.969606
  RouteUID: HSZ0110
  SubRouteUID: HSZ011001
  Direction: 0
- StopUID: HSZ291307
  StopID: '291307'
  StopName:
    Zh_tw: 城隍廟
    En: Chenghuang Temple
  StopBoarding: 0
  StopSequence: 3
  StopPosition:
    PositionLat: 24.80502
    PositionLon: 120.96627
  RouteUID: HSZ0110
  SubRouteUID: HSZ011001
  Direction: 0
- StopUID: HSZ291333
  StopID: '291333'
  StopName:
    Zh_tw: 西門市場
    En: ''
  StopBoarding: 0
  StopSequence: 4
  StopPosition:
    PositionLat: 24.80373
    PositionLon: 120.96377
  RouteUID: HSZ0110
  SubRouteUID: HSZ011001
  Direction: 0
- StopUID: HSZ291332
  StopID: '291332'
  StopName:
    Zh_tw: 西門口
    En: ''
  StopBoarding: 0
  StopSequence: 5
  StopPosition:
    PositionLat: 24.802569
    PositionLon: 120.962177
  RouteUID: HSZ0110
  SubRouteUID: HSZ011001
  Direction: 0
- StopUID: HSZ291334
  StopID: '291334'
  StopName:
    Zh_tw: 西門派出所
    En: ''
  StopBoarding: 0
  StopSequence: 6
  StopPosition:
    PositionLat: 24.8017
    PositionLon: 120.96079
  RouteUID: HSZ0110
  SubRouteUID: HSZ011001
  Direction: 0
- StopUID: HSZ291335
  StopID: '291335'
  StopName:
    Zh_tw: 西門國小
    En: ''
  StopBoarding: 0
  StopSequence: 7
  StopPosition:
    PositionLat: 24.80234
    PositionLon: 120.96009
  RouteUID: HSZ0110
  SubRouteUID: HSZ011001
  Direction: 0
- StopUID: HSZ291300
  StopID: '291300'
  StopName:
    Zh_tw: 新竹監獄
    En: ''
  StopBoarding: 0
  StopSequence: 8
  StopPosition:
    PositionLat: 24.80372
    PositionLon: 120.95924
  RouteUID: HSZ0110
  SubRouteUID: HSZ011001
  Direction: 0
- StopUID: HSZ291310
  StopID: '291310'
  StopName:
    Zh_tw: 監獄邊
    En: ''
  StopBoarding: 0
  StopSequence: 9
  StopPosition:
    PositionLat: 24.80432
    PositionLon: 120.95728
  RouteUID: HSZ0110
  SubRouteUID: HSZ011001
  Direction: 0
- StopUID: HSZ291330
  StopID: '291330'
  StopName:
    Zh_tw: 太子宮
    En: ''
  StopBoarding: 0
  StopSequence: 10
  StopPosition:
    PositionLat: 24.80509
    PositionLon: 120.95312
  RouteUID: HSZ0110
  SubRouteUID: HSZ011001
  Direction: 0
- StopUID: HSZ291343
  StopID: '291343'
  StopName:
    Zh_tw: 南勢化工
    En: ''
  StopBoarding: 0
  StopSequence: 11
  StopPosition:
    PositionLat: 24.80511
    PositionLon: 120.95144
  RouteUID: HSZ0110
  SubRouteUID: HSZ011001
  Direction: 0
- StopUID: HSZ291342
  StopID: '291342'
  StopName:
    Zh_tw: 南勢
    En: ''
  StopBoarding: 0
  StopSequence: 12
  StopPosition:
    PositionLat: 24.80506
    PositionLon: 120.94981
  RouteUID: HSZ0110
  SubRouteUID: HSZ011001
  Direction: 0
- StopUID: HSZ291327
  StopID: '291327'
  StopName:
    Zh_tw: 大鵬二村
    En: ''
  StopBoarding: 0
  StopSequence: 13
  StopPosition:
    PositionLat: 24.80513
    PositionLon: 120.94628
  RouteUID: HSZ0110
  SubRouteUID: HSZ011001
  Direction: 0
- StopUID: HSZ291347
  StopID: '291347'
  StopName:
    Zh_tw: 實踐新村
    En: ''
  StopBoarding: 0
  StopSequence: 14
  StopPosition:
    PositionLat: 24.80506
    PositionLon: 120.94424
  RouteUID: HSZ0110
  SubRouteUID: HSZ011001
  Direction: 0
- StopUID: HSZ291339
  StopID: '291339'
  StopName:
    Zh_tw: 虎林新村
    En: ''
  StopBoarding: 0
  StopSequence: 15
  StopPosition:
    PositionLat: 24.80514
    PositionLon: 120.94228
  RouteUID: HSZ0110
  SubRouteUID: HSZ011001
  Direction: 0
- StopUID: HSZ291338
  StopID: '291338'
  StopName:
    Zh_tw: 虎林國小
    En: ''
  StopBoarding: 0
  StopSequence: 16
  StopPosition:
    PositionLat: 24.80516
    PositionLon: 120.94078
  RouteUID: HSZ0110
  SubRouteUID: HSZ011001
  Direction: 0
- StopUID: HSZ291328
  StopID: '291328'
  StopName:
    Zh_tw: 小南勢
    En: ''
  StopBoarding: 0
  StopSequence: 17
  StopPosition:
    PositionLat: 24.80559
    PositionLon: 120.93759
  RouteUID: HSZ0110
  SubRouteUID: HSZ011001
  Direction: 0
- StopUID: HSZ291337
  StopID: '291337'
  StopName:
    Zh_tw: 虎山
    En: ''
  StopBoarding: 0
  StopSequence: 18
  StopPosition:
    PositionLat: 24.80745
    PositionLon: 120.93524
  RouteUID: HSZ0110
  SubRouteUID: HSZ011001
  Direction: 0
- StopUID: HSZ291329
  StopID: '291329'
  StopName:
    Zh_tw: 中庄
    En: ''
  StopBoarding: 0
  StopSequence: 19
  StopPosition:
    PositionLat: 24.80698
    PositionLon: 120.93182
  RouteUID: HSZ0110
  SubRouteUID: HSZ011001
  Direction: 0
- StopUID: HSZ291341
  StopID: '291341'
  StopName:
    Zh_tw: 金廈園
    En: ''
  StopBoarding: 0
  StopSequence: 20
  StopPosition:
    PositionLat: 24.80627
    PositionLon: 120.92915
  RouteUID: HSZ0110
  SubRouteUID: HSZ011001
  Direction: 0
- StopUID: HSZ291344
  StopID: '291344'
  StopName:
    Zh_tw: 香雅橋
    En: ''
  StopBoarding: 0
  StopSequence: 21
  StopPosition:
    PositionLat: 24.80424
    PositionLon: 120.92587
  RouteUID: HSZ0110
  SubRouteUID: HSZ011001
  Direction: 0
- StopUID: HSZ291345
  StopID: '291345'
  StopName:
    Zh_tw: 罟寮
    En: ''
  StopBoarding: 0
  StopSequence: 22
  StopPosition:
    PositionLat: 24.80583
    PositionLon: 120.9222
  RouteUID: HSZ0110
  SubRouteUID: HSZ011001
  Direction: 0
- StopUID: HSZ291346
  StopID: '291346'
  StopName:
    Zh_tw: 罟寮一站
    En: ''
  StopBoarding: 0
  StopSequence: 23
  StopPosition:
    PositionLat: 24.80684
    PositionLon: 120.92155
  RouteUID: HSZ0110
  SubRouteUID: HSZ011001
  Direction: 0
- StopUID: HSZ291340
  StopID: '291340'
  StopName:
    Zh_tw: 金元寶
    En: ''
  StopBoarding: 0
  StopSequence: 24
  StopPosition:
    PositionLat: 24.80815
    PositionLon: 120.9223
  RouteUID: HSZ0110
  SubRouteUID: HSZ011001
  Direction: 0
- StopUID: HSZ291331
  StopID: '291331'
  StopName:
    Zh_tw: 瓦厝
    En: ''
  StopBoarding: -1
  StopSequence: 25
  StopPosition:
    PositionLat: 24.80991
    PositionLon: 120.92419
  RouteUID: HSZ0110
  SubRouteUID: HSZ011001
  Direction: 0
- StopUID: HSZ291352
  StopID: '291352'
  StopName:
    Zh_tw: 瓦厝
    En: ''
  StopBoarding: 1
  StopSequence: 1
  StopPosition:
    PositionLat: 24.81006
    PositionLon: 120.92426
  RouteUID: HSZ0110
  SubRouteUID: HSZ011002
  Direction: 1
- StopUID: HSZ291360
  StopID: '291360'
  StopName:
    Zh_tw: 金元寶
    En: ''
  StopBoarding: 0
  StopSequence: 2
  StopPosition:
    PositionLat: 24.80853
    PositionLon: 120.92251
  RouteUID: HSZ0110
  SubRouteUID: HSZ011002
  Direction: 1
- StopUID: HSZ291366
  StopID: '291366'
  StopName:
    Zh_tw: 罟寮一站
    En: ''
  StopBoarding: 0
  StopSequence: 3
  StopPosition:
    PositionLat: 24.80668
    PositionLon: 120.92154
  RouteUID: HSZ0110
  SubRouteUID: HSZ011002
  Direction: 1
- StopUID: HSZ291365
  StopID: '291365'
  StopName:
    Zh_tw: 罟寮
    En: ''
  StopBoarding: 0
  StopSequence: 4
  StopPosition:
    PositionLat: 24.80593
    PositionLon: 120.92199
  RouteUID: HSZ0110
  SubRouteUID: HSZ011002
  Direction: 1
- StopUID: HSZ291364
  StopID: '291364'
  StopName:
    Zh_tw: 香雅橋
    En: ''
  StopBoarding: 0
  StopSequence: 5
  StopPosition:
    PositionLat: 24.80406
    PositionLon: 120.9259
  RouteUID: HSZ0110
  SubRouteUID: HSZ011002
  Direction: 1
- StopUID: HSZ291361
  StopID: '291361'
  StopName:
    Zh_tw: 金廈園
    En: ''
  StopBoarding: 0
  StopSequence: 6
  StopPosition:
    PositionLat: 24.80611
    PositionLon: 120.92911
  RouteUID: HSZ0110
  SubRouteUID: HSZ011002
  Direction: 1
- StopUID: HSZ291350
  StopID: '291350'
  StopName:
    Zh_tw: 中庄
    En: ''
  StopBoarding: 0
  StopSequence: 7
  StopPosition:
    PositionLat: 24.80677
    PositionLon: 120.93165
  RouteUID: HSZ0110
  SubRouteUID: HSZ011002
  Direction: 1
- StopUID: HSZ291357
  StopID: '291357'
  StopName:
    Zh_tw: 虎山
    En: ''
  StopBoarding: 0
  StopSequence: 8
  StopPosition:
    PositionLat: 24.80752
    PositionLon: 120.93502
  RouteUID: HSZ0110
  SubRouteUID: HSZ011002
  Direction: 1
- StopUID: HSZ291349
  StopID: '291349'
  StopName:
    Zh_tw: 小南勢
    En: ''
  StopBoarding: 0
  StopSequence: 9
  StopPosition:
    PositionLat: 24.80536
    PositionLon: 120.93828
  RouteUID: HSZ0110
  SubRouteUID: HSZ011002
  Direction: 1
- StopUID: HSZ291358
  StopID: '291358'
  StopName:
    Zh_tw: 虎林國小
    En: ''
  StopBoarding: 0
  StopSequence: 10
  StopPosition:
    PositionLat: 24.80505
    PositionLon: 120.94071
  RouteUID: HSZ0110
  SubRouteUID: HSZ011002
  Direction: 1
- StopUID: HSZ291359
  StopID: '291359'
  StopName:
    Zh_tw: 虎林新村
    En: ''
  StopBoarding: 0
  StopSequence: 11
  StopPosition:
    PositionLat: 24.80507
    PositionLon: 120.94218
  RouteUID: HSZ0110
  SubRouteUID: HSZ011002
  Direction: 1
- StopUID: HSZ291367
  StopID: '291367'
  StopName:
    Zh_tw: 實踐新村
    En: ''
  StopBoarding: 0
  StopSequence: 12
  StopPosition:
    PositionLat: 24.80498
    PositionLon: 120.94444
  RouteUID: HSZ0110
  SubRouteUID: HSZ011002
  Direction: 1
- StopUID: HSZ291348
  StopID: '291348'
  StopName:
    Zh_tw: 大鵬二村
    En: ''
  StopBoarding: 0
  StopSequence: 13
  StopPosition:
    PositionLat: 24.80505
    PositionLon: 120.94653
  RouteUID: HSZ0110
  SubRouteUID: HSZ011002
  Direction: 1
- StopUID: HSZ291362
  StopID: '291362'
  StopName:
    Zh_tw: 南勢
    En: ''
  StopBoarding: 0
  StopSequence: 14
  StopPosition:
    PositionLat: 24.80505
    PositionLon: 120.94991
  RouteUID: HSZ0110
  SubRouteUID: HSZ011002
  Direction: 1
- StopUID: HSZ291363
  StopID: '291363'
  StopName:
    Zh_tw: 南勢化工
    En: ''
  StopBoarding: 0
  StopSequence: 15
  StopPosition:
    PositionLat: 24.80503
    PositionLon: 120.95161
  RouteUID: HSZ0110
  SubRouteUID: HSZ011002
  Direction: 1
- StopUID: HSZ291351
  StopID: '291351'
  StopName:
    Zh_tw: 太子宮
    En: ''
  StopBoarding: 0
  StopSequence: 16
  StopPosition:
    PositionLat: 24.80499
    PositionLon: 120.95329
  RouteUID: HSZ0110
  SubRouteUID: HSZ011002
  Direction: 1
- StopUID: HSZ291325
  StopID: '291325'
  StopName:
    Zh_tw: 監獄邊
    En: ''
  StopBoarding: 0
  StopSequence: 17
  StopPosition:
    PositionLat: 24.80424
    PositionLon: 120.95727
  RouteUID: HSZ0110
  SubRouteUID: HSZ011002
  Direction: 1
- StopUID: HSZ291316
  StopID: '291316'
  StopName:
    Zh_tw: 新竹監獄
    En: ''
  StopBoarding: 0
  StopSequence: 18
  StopPosition:
    PositionLat: 24.80359
    PositionLon: 120.95928
  RouteUID: HSZ0110
  SubRouteUID: HSZ011002
  Direction: 1
- StopUID: HSZ291356
  StopID: '291356'
  StopName:
    Zh_tw: 西門國小
    En: ''
  StopBoarding: 0
  StopSequence: 19
  StopPosition:
    PositionLat: 24.80244
    PositionLon: 120.96003
  RouteUID: HSZ0110
  SubRouteUID: HSZ011002
  Direction: 1
- StopUID: HSZ291355
  StopID: '291355'
  StopName:
    Zh_tw: 西門派出所
    En: ''
  StopBoarding: 0
  StopSequence: 20
  StopPosition:
    PositionLat: 24.80168
    PositionLon: 120.96103
  RouteUID: HSZ0110
  SubRouteUID: HSZ011002
  Direction: 1
- StopUID: HSZ291353
  StopID: '291353'
  StopName:
    Zh_tw: 西門口
    En: ''
  StopBoarding: 0
  StopSequence: 21
  StopPosition:
    PositionLat: 24.80242
    PositionLon: 120.96213
  RouteUID: HSZ0110
  SubRouteUID: HSZ011002
  Direction: 1
- StopUID: HSZ291354
  StopID: '291354'
  StopName:
    Zh_tw: 西門市場
    En: ''
  StopBoarding: 0
  StopSequence: 22
  StopPosition:
    PositionLat: 24.80367
    PositionLon: 120.96375
  RouteUID: HSZ0110
  SubRouteUID: HSZ011002
  Direction: 1
- StopUID: HSZ291322
  StopID: '291322'
  StopName:
    Zh_tw: 城隍廟
    En: Chenghuang Temple
  StopBoarding: 0
  StopSequence: 23
  StopPosition:
    PositionLat: 24.80534
    PositionLon: 120.96645
  RouteUID: HSZ0110
  SubRouteUID: HSZ011002
  Direction: 1
- StopUID: HSZ291265
  StopID: '291265'
  StopName:
    Zh_tw: 東門市場
    En: Dong Men Market
  StopBoarding: 0
  StopSequence: 24
  StopPosition:
    PositionLat: 24.80561
    PositionLon: 120.96954
  RouteUID: HSZ0110
  SubRouteUID: HSZ011002
  Direction: 1
- StopUID: HSZ291747
  StopID: '291747'
  StopName:
    Zh_tw: 火車站
    En: ''
  StopBoarding: -1
  StopSequence: 25
  StopPosition:
    PositionLat: 24.80312
    PositionLon: 120.971227
  RouteUID: HSZ0110
  SubRouteUID: HSZ011002
  Direction: 1
- StopUID: HSZ291301
  StopID: '291301'
  StopName:
    Zh_tw: 火車站
    En: ''
  StopBoarding: 1
  StopSequence: 1
  StopPosition:
    PositionLat: 24.80336
    PositionLon: 120.97114
  RouteUID: HSZ0110
  SubRouteUID: HSZ0110A1
  Direction: 0
- StopUID: HSZ291742
  StopID: '291742'
  StopName:
    Zh_tw: 東門市場
    En: Dong Men Market
  StopBoarding: 0
  StopSequence: 2
  StopPosition:
    PositionLat: 24.805256
    PositionLon: 120.969606
  RouteUID: HSZ0110
  SubRouteUID: HSZ0110A1
  Direction: 0
- StopUID: HSZ291307
  StopID: '291307'
  StopName:
    Zh_tw: 城隍廟
    En: Chenghuang Temple
  StopBoarding: 0
  StopSequence: 3
  StopPosition:
    PositionLat: 24.80502
    PositionLon: 120.96627
  RouteUID: HSZ0110
  SubRouteUID: HSZ0110A1
  Direction: 0
- StopUID: HSZ291333
  StopID: '291333'
  StopName:
    Zh_tw: 西門市場
    En: ''
  StopBoarding: 0
  StopSequence: 4
  StopPosition:
    PositionLat: 24.80373
    PositionLon: 120.96377
  RouteUID: HSZ0110
  SubRouteUID: HSZ0110A1
  Direction: 0
- StopUID: HSZ291332
  StopID: '291332'
  StopName:
    Zh_tw: 西門口
    En: ''
  StopBoarding: 0
  StopSequence: 5
  StopPosition:
    PositionLat: 24.802569
    PositionLon: 120.962177
  RouteUID: HSZ0110
  SubRouteUID: HSZ0110A1
  Direction: 0
- StopUID: HSZ291334
  StopID: '291334'
  StopName:
    Zh_tw: 西門派出所
    En: ''
  StopBoarding: 0
  StopSequence: 6
  StopPosition:
    PositionLat: 24.8017
    PositionLon: 120.96079
  RouteUID: HSZ0110
  SubRouteUID: HSZ0110A1
  Direction: 0
- StopUID: HSZ291335
  StopID: '291335'
  StopName:
    Zh_tw: 西門國小
    En: ''
  StopBoarding: 0
  StopSequence: 7
  StopPosition:
    PositionLat: 24.80234
    PositionLon: 120.96009
  RouteUID: HSZ0110
  SubRouteUID: HSZ0110A1
  Direction: 0
- StopUID: HSZ291300
  StopID: '291300'
  StopName:
    Zh_tw: 新竹監獄
    En: ''
  StopBoarding: 0
  StopSequence: 8
  StopPosition:
    PositionLat: 24.80372
    PositionLon: 120.95924
  RouteUID: HSZ0110
  SubRouteUID: HSZ0110A1
  Direction: 0
- StopUID: HSZ291310
  StopID: '291310'
  StopName:
    Zh_tw: 監獄邊
    En: ''
  StopBoarding: 0
  StopSequence: 9
  StopPosition:
    PositionLat: 24.80432
    PositionLon: 120.95728
  RouteUID: HSZ0110
  SubRouteUID: HSZ0110A1
  Direction: 0
- StopUID: HSZ291330
  StopID: '291330'
  StopName:
    Zh_tw: 太子宮
    En: ''
  StopBoarding: 0
  StopSequence: 10
  StopPosition:
    PositionLat: 24.80509
    PositionLon: 120.95312
  RouteUID: HSZ0110
  SubRouteUID: HSZ0110A1
  Direction: 0
- StopUID: HSZ291343
  StopID: '291343'
  StopName:
    Zh_tw: 南勢化工
    En: ''
  StopBoarding: 0
  StopSequence: 11
  StopPosition:
    PositionLat: 24.80511
    PositionLon: 120.95144
  RouteUID: HSZ0110
  SubRouteUID: HSZ0110A1
  Direction: 0
- StopUID: HSZ291342
  StopID: '291342'
  StopName:
    Zh_tw: 南勢
    En: ''
  StopBoarding: 0
  StopSequence: 12
  StopPosition:
    PositionLat: 24.80506
    PositionLon: 120.94981
  RouteUID: HSZ0110
  SubRouteUID: HSZ0110A1
  Direction: 0
- StopUID: HSZ291327
  StopID: '291327'
  StopName:
    Zh_tw: 大鵬二村
    En: ''
  StopBoarding: 0
  StopSequence: 13
  StopPosition:
    PositionLat: 24.80513
    PositionLon: 120.94628
  RouteUID: HSZ0110
  SubRouteUID: HSZ0110A1
  Direction: 0
- StopUID: HSZ291347
  StopID: '291347'
  StopName:
    Zh_tw: 實踐新村
    En: ''
  StopBoarding: 0
  StopSequence: 14
  StopPosition:
    PositionLat: 24.80506
    PositionLon: 120.94424
  RouteUID: HSZ0110
  SubRouteUID: HSZ0110A1
  Direction: 0
- StopUID: HSZ291339
  StopID: '291339'
  StopName:
    Zh_tw: 虎林新村
    En: ''
  StopBoarding: 0
  StopSequence: 15
  StopPosition:
    PositionLat: 24.80514
    PositionLon: 120.94228
  RouteUID: HSZ0110
  SubRouteUID: HSZ0110A1
  Direction: 0
- StopUID: HSZ291338
  StopID: '291338'
  StopName:
    Zh_tw: 虎林國小
    En: ''
  StopBoarding: 0
  StopSequence: 16
  StopPosition:
    PositionLat: 24.80516
    PositionLon: 120.94078
  RouteUID: HSZ0110
  SubRouteUID: HSZ0110A1
  Direction: 0
- StopUID: HSZ291328
  StopID: '291328'
  StopName:
    Zh_tw: 小南勢
    En: ''
  StopBoarding: 0
  StopSequence: 17
  StopPosition:
    PositionLat: 24.80559
    PositionLon: 120.93759
  RouteUID: HSZ0110
  SubRouteUID: HSZ0110A1
  Direction: 0
- StopUID: HSZ291337
  StopID: '291337'
  StopName:
    Zh_tw: 虎山
    En: ''
  StopBoarding: 0
  StopSequence: 18
  StopPosition:
    PositionLat: 24.80745
    PositionLon: 120.93524
  RouteUID: HSZ0110
  SubRouteUID: HSZ0110A1
  Direction: 0
- StopUID: HSZ291329
  StopID: '291329'
  StopName:
    Zh_tw: 中庄
    En: ''
  StopBoarding: 0
  StopSequence: 19
  StopPosition:
    PositionLat: 24.80698
    PositionLon: 120.93182
  RouteUID: HSZ0110
  SubRouteUID: HSZ0110A1
  Direction: 0
- StopUID: HSZ291341
  StopID: '291341'
  StopName:
    Zh_tw: 金廈園
    En: ''
  StopBoarding: 0
  StopSequence: 20
  StopPosition:
    PositionLat: 24.80627
    PositionLon: 120.92915
  RouteUID: HSZ0110
  SubRouteUID: HSZ0110A1
  Direction: 0
- StopUID: HSZ291344
  StopID: '291344'
  StopName:
    Zh_tw: 香雅橋
    En: ''
  StopBoarding: 0
  StopSequence: 21
  StopPosition:
    PositionLat: 24.80424
    PositionLon: 120.92587
  RouteUID: HSZ0110
  SubRouteUID: HSZ0110A1
  Direction: 0
- StopUID: HSZ291345
  StopID: '291345'
  StopName:
    Zh_tw: 罟寮
    En: ''
  StopBoarding: 0
  StopSequence: 22
  StopPosition:
    PositionLat: 24.80583
    PositionLon: 120.9222
  RouteUID: HSZ0110
  SubRouteUID: HSZ0110A1
  Direction: 0
- StopUID: HSZ291346
  StopID: '291346'
  StopName:
    Zh_tw: 罟寮一站
    En: ''
  StopBoarding: 0
  StopSequence: 23
  StopPosition:
    PositionLat: 24.80684
    PositionLon: 120.92155
  RouteUID: HSZ0110
  SubRouteUID: HSZ0110A1
  Direction: 0
- StopUID: HSZ291340
  StopID: '291340'
  StopName:
    Zh_tw: 金元寶
    En: ''
  StopBoarding: 0
  StopSequence: 24
  StopPosition:
    PositionLat: 24.80815
    PositionLon: 120.9223
  RouteUID: HSZ0110
  SubRouteUID: HSZ0110A1
  Direction: 0
- StopUID: HSZ291331
  StopID: '291331'
  StopName:
    Zh_tw: 瓦厝
    En: ''
  StopBoarding: 0
  StopSequence: 25
  StopPosition:
    PositionLat: 24.80991
    PositionLon: 120.92419
  RouteUID: HSZ0110
  SubRouteUID: HSZ0110A1
  Direction: 0
- StopUID: HSZ291370
  StopID: '291370'
  StopName:
    Zh_tw: 營房口
    En: ''
  StopBoarding: 0
  StopSequence: 26
  StopPosition:
    PositionLat: 24.814
    PositionLon: 120.92867
  RouteUID: HSZ0110
  SubRouteUID: HSZ0110A1
  Direction: 0
- StopUID: HSZ291368
  StopID: '291368'
  StopName:
    Zh_tw: 海口
    En: ''
  StopBoarding: 0
  StopSequence: 27
  StopPosition:
    PositionLat: 24.81548
    PositionLon: 120.92891
  RouteUID: HSZ0110
  SubRouteUID: HSZ0110A1
  Direction: 0
- StopUID: HSZ291369
  StopID: '291369'
  StopName:
    Zh_tw: 海埔地
    En: ''
  StopBoarding: -1
  StopSequence: 28
  StopPosition:
    PositionLat: 24.81812
    PositionLon: 120.92901
  RouteUID: HSZ0110
  SubRouteUID: HSZ0110A1
  Direction: 0
- StopUID: HSZ291372
  StopID: '291372'
  StopName:
    Zh_tw: 海埔地
    En: ''
  StopBoarding: 1
  StopSequence: 1
  StopPosition:
    PositionLat: 24.81793
    PositionLon: 120.92892
  RouteUID: HSZ0110
  SubRouteUID: HSZ0110A2
  Direction: 1
- StopUID: HSZ291371
  StopID: '291371'
  StopName:
    Zh_tw: 海口
    En: ''
  StopBoarding: 0
  StopSequence: 2
  StopPosition:
    PositionLat: 24.81536
    PositionLon: 120.92881
  RouteUID: HSZ0110
  SubRouteUID: HSZ0110A2
  Direction: 1
- StopUID: HSZ291373
  StopID: '291373'
  StopName:
    Zh_tw: 營房口
    En: ''
  StopBoarding: 0
  StopSequence: 3
  StopPosition:
    PositionLat: 24.81376
    PositionLon: 120.92827
  RouteUID: HSZ0110
  SubRouteUID: HSZ0110A2
  Direction: 1
- StopUID: HSZ291352
  StopID: '291352'
  StopName:
    Zh_tw: 瓦厝
    En: ''
  StopBoarding: 0
  StopSequence: 4
  StopPosition:
    PositionLat: 24.81006
    PositionLon: 120.92426
  RouteUID: HSZ0110
  SubRouteUID: HSZ0110A2
  Direction: 1
- StopUID: HSZ291360
  StopID: '291360'
  StopName:
    Zh_tw: 金元寶
    En: ''
  StopBoarding: 0
  StopSequence: 5
  StopPosition:
    PositionLat: 24.80853
    PositionLon: 120.92251
  RouteUID: HSZ0110
  SubRouteUID: HSZ0110A2
  Direction: 1
- StopUID: HSZ291366
  StopID: '291366'
  StopName:
    Zh_tw: 罟寮一站
    En: ''
  StopBoarding: 0
  StopSequence: 6
  StopPosition:
    PositionLat: 24.80668
    PositionLon: 120.92154
  RouteUID: HSZ0110
  SubRouteUID: HSZ0110A2
  Direction: 1
- StopUID: HSZ291365
  StopID: '291365'
  StopName:
    Zh_tw: 罟寮
    En: ''
  StopBoarding: 0
  StopSequence: 7
  StopPosition:
    PositionLat: 24.80593
    PositionLon: 120.92199
  RouteUID: HSZ0110
  SubRouteUID: HSZ0110A2
  Direction: 1
- StopUID: HSZ291364
  StopID: '291364'
  StopName:
    Zh_tw: 香雅橋
    En: ''
  StopBoarding: 0
  StopSequence: 8
  StopPosition:
    PositionLat: 24.80406
    PositionLon: 120.9259
  RouteUID: HSZ0110
  SubRouteUID: HSZ0110A2
  Direction: 1
- StopUID: HSZ291361
  StopID: '291361'
  StopName:
    Zh_tw: 金廈園
    En: ''
  StopBoarding: 0
  StopSequence: 9
  StopPosition:
    PositionLat: 24.80611
    PositionLon: 120.92911
  RouteUID: HSZ0110
  SubRouteUID: HSZ0110A2
  Direction: 1
- StopUID: HSZ291350
  StopID: '291350'
  StopName:
    Zh_tw: 中庄
    En: ''
  StopBoarding: 0
  StopSequence: 10
  StopPosition:
    PositionLat: 24.80677
    PositionLon: 120.93165
  RouteUID: HSZ0110
  SubRouteUID: HSZ0110A2
  Direction: 1
- StopUID: HSZ291357
  StopID: '291357'
  StopName:
    Zh_tw: 虎山
    En: ''
  StopBoarding: 0
  StopSequence: 11
  StopPosition:
    PositionLat: 24.80752
    PositionLon: 120.93502
  RouteUID: HSZ0110
  SubRouteUID: HSZ0110A2
  Direction: 1
- StopUID: HSZ291349
  StopID: '291349'
  StopName:
    Zh_tw: 小南勢
    En: ''
  StopBoarding: 0
  StopSequence: 12
  StopPosition:
    PositionLat: 24.80536
    PositionLon: 120.93828
  RouteUID: HSZ0110
  SubRouteUID: HSZ0110A2
  Direction: 1
- StopUID: HSZ291358
  StopID: '291358'
  StopName:
    Zh_tw: 虎林國小
    En: ''
  StopBoarding: 0
  StopSequence: 13
  StopPosition:
    PositionLat: 24.80505
    PositionLon: 120.94071
  RouteUID: HSZ0110
  SubRouteUID: HSZ0110A2
  Direction: 1
- StopUID: HSZ291359
  StopID: '291359'
  StopName:
    Zh_tw: 虎林新村
    En: ''
  StopBoarding: 0
  StopSequence: 14
  StopPosition:
    PositionLat: 24.80507
    PositionLon: 120.94218
  RouteUID: HSZ0110
  SubRouteUID: HSZ0110A2
  Direction: 1
- StopUID: HSZ291367
  StopID: '291367'
  StopName:
    Zh_tw: 實踐新村
    En: ''
  StopBoarding: 0
  StopSequence: 15
  StopPosition:
    PositionLat: 24.80498
    PositionLon: 120.94444
  RouteUID: HSZ0110
  SubRouteUID: HSZ0110A2
  Direction: 1
- StopUID: HSZ291348
  StopID: '291348'
  StopName:
    Zh_tw: 大鵬二村
    En: ''
  StopBoarding: 0
  StopSequence: 16
  StopPosition:
    PositionLat: 24.80505
    PositionLon: 120.94653
  RouteUID: HSZ0110
  SubRouteUID: HSZ0110A2
  Direction: 1
- StopUID: HSZ291362
  StopID: '291362'
  StopName:
    Zh_tw: 南勢
    En: ''
  StopBoarding: 0
  StopSequence: 17
  StopPosition:
    PositionLat: 24.80505
    PositionLon: 120.94991
  RouteUID: HSZ0110
  SubRouteUID: HSZ0110A2
  Direction: 1
- StopUID: HSZ291363
  StopID: '291363'
  StopName:
    Zh_tw: 南勢化工
    En: ''
  StopBoarding: 0
  StopSequence: 18
  StopPosition:
    PositionLat: 24.80503
    PositionLon: 120.95161
  RouteUID: HSZ0110
  SubRouteUID: HSZ0110A2
  Direction: 1
- StopUID: HSZ291351
  StopID: '291351'
  StopName:
    Zh_tw: 太子宮
    En: ''
  StopBoarding: 0
  StopSequence: 19
  StopPosition:
    PositionLat: 24.80499
    PositionLon: 120.95329
  RouteUID: HSZ0110
  SubRouteUID: HSZ0110A2
  Direction: 1
- StopUID: HSZ291325
  StopID: '291325'
  StopName:
    Zh_tw: 監獄邊
    En: ''
  StopBoarding: 0
  StopSequence: 20
  StopPosition:
    PositionLat: 24.80424
    PositionLon: 120.95727
  RouteUID: HSZ0110
  SubRouteUID: HSZ0110A2
  Direction: 1
- StopUID: HSZ291316
  StopID: '291316'
  StopName:
    Zh_tw: 新竹監獄
    En: ''
  StopBoarding: 0
  StopSequence: 21
  StopPosition:
    PositionLat: 24.80359
    PositionLon: 120.95928
  RouteUID: HSZ0110
  SubRouteUID: HSZ0110A2
  Direction: 1
- StopUID: HSZ291356
  StopID: '291356'
  StopName:
    Zh_tw: 西門國小
    En: ''
  StopBoarding: 0
  StopSequence: 22
  StopPosition:
    PositionLat: 24.80244
    PositionLon: 120.96003
  RouteUID: HSZ0110
  SubRouteUID: HSZ0110A2
  Direction: 1
- StopUID: HSZ291355
  StopID: '291355'
  StopName:
    Zh_tw: 西門派出所
    En: ''
  StopBoarding: 0
  StopSequence: 23
  StopPosition:
    PositionLat: 24.80168
    PositionLon: 120.96103
  RouteUID: HSZ0110
  SubRouteUID: HSZ0110A2
  Direction: 1
- StopUID: HSZ291353
  StopID: '291353'
  StopName:
    Zh_tw: 西門口
    En: ''
  StopBoarding: 0
  StopSequence: 24
  StopPosition:
    PositionLat: 24.80242
    PositionLon: 120.96213
  RouteUID: HSZ0110
  SubRouteUID: HSZ0110A2
  Direction: 1
- StopUID: HSZ291354
  StopID: '291354'
  StopName:
    Zh_tw: 西門市場
    En: ''
  StopBoarding: 0
  StopSequence: 25
  StopPosition:
    PositionLat: 24.80367
    PositionLon: 120.96375
  RouteUID: HSZ0110
  SubRouteUID: HSZ0110A2
  Direction: 1
- StopUID: HSZ291322
  StopID: '291322'
  StopName:
    Zh_tw: 城隍廟
    En: Chenghuang Temple
  StopBoarding: 0
  StopSequence: 26
  StopPosition:
    PositionLat: 24.80534
    PositionLon: 120.96645
  RouteUID: HSZ0110
  SubRouteUID: HSZ0110A2
  Direction: 1
- StopUID: HSZ291265
  StopID: '291265'
  StopName:
    Zh_tw: 東門市場
    En: Dong Men Market
  StopBoarding: 0
  StopSequence: 27
  StopPosition:
    PositionLat: 24.80561
    PositionLon: 120.96954
  RouteUID: HSZ0110
  SubRouteUID: HSZ0110A2
  Direction: 1
- StopUID: HSZ291747
  StopID: '291747'
  StopName:
    Zh_tw: 火車站
    En: ''
  StopBoarding: -1
  StopSequence: 28
  StopPosition:
    PositionLat: 24.80312
    PositionLon: 120.971227
  RouteUID: HSZ0110
  SubRouteUID: HSZ0110A2
  Direction: 1
- StopUID: HSZ291301
  StopID: '291301'
  StopName:
    Zh_tw: 火車站
    En: ''
  StopBoarding: 1
  StopSequence: 1
  StopPosition:
    PositionLat: 24.80336
    PositionLon: 120.97114
  RouteUID: HSZ0113
  SubRouteUID: HSZ011301
  Direction: 0
- StopUID: HSZ291306
  StopID: '291306'
  StopName:
    Zh_tw: 東門市場
    En: ''
  StopBoarding: 0
  StopSequence: 2
  StopPosition:
    PositionLat: 24.80528
    PositionLon: 120.969589
  RouteUID: HSZ0113
  SubRouteUID: HSZ011301
  Direction: 0
- StopUID: HSZ291307
  StopID: '291307'
  StopName:
    Zh_tw: 城隍廟
    En: Chenghuang Temple
  StopBoarding: 0
  StopSequence: 3
  StopPosition:
    PositionLat: 24.80502
    PositionLon: 120.96627
  RouteUID: HSZ0113
  SubRouteUID: HSZ011301
  Direction: 0
- StopUID: HSZ291333
  StopID: '291333'
  StopName:
    Zh_tw: 西門市場
    En: ''
  StopBoarding: 0
  StopSequence: 4
  StopPosition:
    PositionLat: 24.80373
    PositionLon: 120.96377
  RouteUID: HSZ0113
  SubRouteUID: HSZ011301
  Direction: 0
- StopUID: HSZ291332
  StopID: '291332'
  StopName:
    Zh_tw: 西門口
    En: ''
  StopBoarding: 0
  StopSequence: 5
  StopPosition:
    PositionLat: 24.802569
    PositionLon: 120.962177
  RouteUID: HSZ0113
  SubRouteUID: HSZ011301
  Direction: 0
- StopUID: HSZ291334
  StopID: '291334'
  StopName:
    Zh_tw: 西門派出所
    En: ''
  StopBoarding: 0
  StopSequence: 6
  StopPosition:
    PositionLat: 24.8017
    PositionLon: 120.96079
  RouteUID: HSZ0113
  SubRouteUID: HSZ011301
  Direction: 0
- StopUID: HSZ291335
  StopID: '291335'
  StopName:
    Zh_tw: 西門國小
    En: ''
  StopBoarding: 0
  StopSequence: 7
  StopPosition:
    PositionLat: 24.80234
    PositionLon: 120.96009
  RouteUID: HSZ0113
  SubRouteUID: HSZ011301
  Direction: 0
- StopUID: HSZ291300
  StopID: '291300'
  StopName:
    Zh_tw: 新竹監獄
    En: ''
  StopBoarding: 0
  StopSequence: 8
  StopPosition:
    PositionLat: 24.80372
    PositionLon: 120.95924
  RouteUID: HSZ0113
  SubRouteUID: HSZ011301
  Direction: 0
- StopUID: HSZ291310
  StopID: '291310'
  StopName:
    Zh_tw: 監獄邊
    En: ''
  StopBoarding: 0
  StopSequence: 9
  StopPosition:
    PositionLat: 24.80432
    PositionLon: 120.95728
  RouteUID: HSZ0113
  SubRouteUID: HSZ011301
  Direction: 0
- StopUID: HSZ291330
  StopID: '291330'
  StopName:
    Zh_tw: 太子宮
    En: ''
  StopBoarding: 0
  StopSequence: 10
  StopPosition:
    PositionLat: 24.80509
    PositionLon: 120.95312
  RouteUID: HSZ0113
  SubRouteUID: HSZ011301
  Direction: 0
- StopUID: HSZ291343
  StopID: '291343'
  StopName:
    Zh_tw: 南勢化工
    En: ''
  StopBoarding: 0
  StopSequence: 11
  StopPosition:
    PositionLat: 24.80511
    PositionLon: 120.95144
  RouteUID: HSZ0113
  SubRouteUID: HSZ011301
  Direction: 0
- StopUID: HSZ291342
  StopID: '291342'
  StopName:
    Zh_tw: 南勢
    En: ''
  StopBoarding: 0
  StopSequence: 12
  StopPosition:
    PositionLat: 24.80506
    PositionLon: 120.94981
  RouteUID: HSZ0113
  SubRouteUID: HSZ011301
  Direction: 0
- StopUID: HSZ291327
  StopID: '291327'
  StopName:
    Zh_tw: 大鵬二村
    En: ''
  StopBoarding: 0
  StopSequence: 13
  StopPosition:
    PositionLat: 24.80513
    PositionLon: 120.94628
  RouteUID: HSZ0113
  SubRouteUID: HSZ011301
  Direction: 0
- StopUID: HSZ291347
  StopID: '291347'
  StopName:
    Zh_tw: 實踐新村
    En: ''
  StopBoarding: 0
  StopSequence: 14
  StopPosition:
    PositionLat: 24.80506
    PositionLon: 120.94424
  RouteUID: HSZ0113
  SubRouteUID: HSZ011301
  Direction: 0
- StopUID: HSZ291339
  StopID: '291339'
  StopName:
    Zh_tw: 虎林新村
    En: ''
  StopBoarding: 0
  StopSequence: 15
  StopPosition:
    PositionLat: 24.80514
    PositionLon: 120.94228
  RouteUID: HSZ0113
  SubRouteUID: HSZ011301
  Direction: 0
- StopUID: HSZ291338
  StopID: '291338'
  StopName:
    Zh_tw: 虎林國小
    En: ''
  StopBoarding: 0
  StopSequence: 16
  StopPosition:
    PositionLat: 24.80516
    PositionLon: 120.94078
  RouteUID: HSZ0113
  SubRouteUID: HSZ011301
  Direction: 0
- StopUID: HSZ291328
  StopID: '291328'
  StopName:
    Zh_tw: 小南勢
    En: ''
  StopBoarding: 0
  StopSequence: 17
  StopPosition:
    PositionLat: 24.80559
    PositionLon: 120.93759
  RouteUID: HSZ0113
  SubRouteUID: HSZ011301
  Direction: 0
- StopUID: HSZ291337
  StopID: '291337'
  StopName:
    Zh_tw: 虎山
    En: ''
  StopBoarding: 0
  StopSequence: 18
  StopPosition:
    PositionLat: 24.80745
    PositionLon: 120.93524
  RouteUID: HSZ0113
  SubRouteUID: HSZ011301
  Direction: 0
- StopUID: HSZ291329
  StopID: '291329'
  StopName:
    Zh_tw: 中庄
    En: ''
  StopBoarding: 0
  StopSequence: 19
  StopPosition:
    PositionLat: 24.80698
    PositionLon: 120.93182
  RouteUID: HSZ0113
  SubRouteUID: HSZ011301
  Direction: 0
- StopUID: HSZ291341
  StopID: '291341'
  StopName:
    Zh_tw: 金廈園
    En: ''
  StopBoarding: 0
  StopSequence: 20
  StopPosition:
    PositionLat: 24.80627
    PositionLon: 120.92915
  RouteUID: HSZ0113
  SubRouteUID: HSZ011301
  Direction: 0
- StopUID: HSZ291344
  StopID: '291344'
  StopName:
    Zh_tw: 香雅橋
    En: ''
